osm_id,name,category,lat,lon,city,country,address,phone,website,opening_hours,wifi,wheelchair,operator,brand,osm_url
447589953,New Road Guesthouse,hostel,13.725687,100.516011,Bangkok,Thailand,,,,,,,,,https://www.openstreetmap.org/node/447589953
893975287,whiteplace,hostel,13.8597904,100.5487864,Bangkok,Thailand,,,,,,,,,https://www.openstreetmap.org/node/893975287
893975291,sun,hostel,13.8590925,100.5488294,Bangkok,Thailand,,,,,,,,,https://www.openstreetmap.org/node/893975291
964021841,MHC Guesthouse,guesthouse,13.7281661,100.5719475,Bangkok,Thailand,,+6622599884,https://www.mhc-guesthouse.com/,,wlan,no,,,https://www.openstreetmap.org/node/964021841
971363511,We Train Intl. House,hostel,13.9389596,100.5843484,Bangkok,Thailand,,,www.we-train.co.th,,,,,,https://www.openstreetmap.org/node/971363511
1374904165,โครงการหาบ้านใหม่ให้สุนัขจรจัด,guesthouse,13.8460794,100.576634,Bangkok,Thailand,,,,,,,,,https://www.openstreetmap.org/node/1374904165
1607319416,Wendy House,guesthouse,13.7482306,100.5296591,Bangkok,Thailand,,,https://www.wendyguesthouse.com/evos/front/bin/home.phtml,,wlan,,,,https://www.openstreetmap.org/node/1607319416
1618612103,Bangkok House,guesthouse,13.7637426,100.4981508,Bangkok,Thailand,,,,,,,,,https://www.openstreetmap.org/node/1618612103
1795295271,Homestay,hostel,13.6769351,100.5825926,Bangkok,Thailand,,,,,,,,,https://www.openstreetmap.org/node/1795295271
1795295346,Homestay,hostel,13.677361,100.582911,Bangkok,Thailand,,,,,,,,,https://www.openstreetmap.org/node/1795295346
1795296725,Homestay,hostel,13.6756677,100.581541,Bangkok,Thailand,,,,,,,,,https://www.openstreetmap.org/node/1795296725
1799118872,Phuenang Homestay,guesthouse,13.6751823,100.5721458,Bangkok,Thailand,,,,,,,,,https://www.openstreetmap.org/node/1799118872
2043356187,Focal Local,guesthouse,13.715115,100.5028163,Bangkok,Thailand,,,,,,,,,https://www.openstreetmap.org/node/2043356187
2077991918,Nat,guesthouse,13.7586904,100.4979415,Bangkok,Thailand,,,,,,limited,,,https://www.openstreetmap.org/node/2077991918
2078129003,Pranee Building,guesthouse,13.7468844,100.5292373,Bangkok,Thailand,,,,,,,,,https://www.openstreetmap.org/node/2078129003
2169207108,Samsen 6,guesthouse,13.7644713,100.4997697,Bangkok,Thailand,,,,,,,,,https://www.openstreetmap.org/node/2169207108
2241969409,At Home Guest House,guesthouse,13.7586273,100.4993749,Bangkok,Thailand,Tanao Road,+66818747267,,,wlan,,,,https://www.openstreetmap.org/node/2241969409
2337055721,Amazing House,guesthouse,13.7634068,100.5000875,Bangkok,Thailand,,,,,,,,,https://www.openstreetmap.org/node/2337055721
2401927334,Amarin Inn,guesthouse,13.7622673,100.4968379,Bangkok,Thailand,,,,,,,,,https://www.openstreetmap.org/node/2401927334
2402002138,Apple,guesthouse,13.76221,100.495997,Bangkok,Thailand,,,,,,,,,https://www.openstreetmap.org/node/2402002138
2402002145,Thai Green,guesthouse,13.7621251,100.4960697,Bangkok,Thailand,,,,,,,,,https://www.openstreetmap.org/node/2402002145
2402016073,Suksawad,guesthouse,13.7643569,100.4997281,Bangkok,Thailand,,,,,,,,,https://www.openstreetmap.org/node/2402016073
2402593809,R.S.,guesthouse,13.7626037,100.4962699,Bangkok,Thailand,,,,,,,,,https://www.openstreetmap.org/node/2402593809
2403971308,Rainbow,hostel,13.7594487,100.4952475,Bangkok,Thailand,,,,,wlan,,,,https://www.openstreetmap.org/node/2403971308
2403971309,Sidthi,guesthouse,13.760067,100.4941391,Bangkok,Thailand,รามบุตรี,+66 2 282 3090,,24/7,wlan,,,,https://www.openstreetmap.org/node/2403971309
2403971310,Sawasdee Welcome Inn,guesthouse,13.7600022,100.4934051,Bangkok,Thailand,,,,,,,,,https://www.openstreetmap.org/node/2403971310
2403971312,Secret Garden,guesthouse,13.7600085,100.4939162,Bangkok,Thailand,,,,,,,,,https://www.openstreetmap.org/node/2403971312
2403973210,NapPark Hostel,hostel,13.760775,100.497627,Bangkok,Thailand,,,,,wlan,,,,https://www.openstreetmap.org/node/2403973210
2403982859,SUSU Khaosan Hostel,hostel,13.7605511,100.4988633,Bangkok,Thailand,,,,,,,,,https://www.openstreetmap.org/node/2403982859
2403986909,Marco Polo,hostel,13.7588975,100.4980615,Bangkok,Thailand,,,,,,,,,https://www.openstreetmap.org/node/2403986909
2404108147,Chart GH,guesthouse,13.7592416,100.4963645,Bangkok,Thailand,,,,,,,,,https://www.openstreetmap.org/node/2404108147
2404114207,Kawin Place,guesthouse,13.7585272,100.4965573,Bangkok,Thailand,,,,,,,,,https://www.openstreetmap.org/node/2404114207
2404120658,Dio,guesthouse,13.7580098,100.4988225,Bangkok,Thailand,,,,,,no,,,https://www.openstreetmap.org/node/2404120658
2404242217,Three-O Guesthouse,guesthouse,13.7649042,100.4961003,Bangkok,Thailand,,,,,,,,,https://www.openstreetmap.org/node/2404242217
2404244508,The River,guesthouse,13.7656594,100.4975731,Bangkok,Thailand,,,,,,,,,https://www.openstreetmap.org/node/2404244508
2404244509,White Guesthouse,guesthouse,13.7650761,100.496283,Bangkok,Thailand,,,,,,,,,https://www.openstreetmap.org/node/2404244509
2404245071,Home & Garden,guesthouse,13.7659278,100.4971896,Bangkok,Thailand,,,,,,,,,https://www.openstreetmap.org/node/2404245071
2404245072,Home & Garden Guest House,guesthouse,13.7658154,100.4973782,Bangkok,Thailand,,,,,,,,,https://www.openstreetmap.org/node/2404245072
2405899783,K.C. Guesthouse,guesthouse,13.7629896,100.4965873,Bangkok,Thailand,,,,,wlan,,,,https://www.openstreetmap.org/node/2405899783
2405904991,Chai,guesthouse,13.7601497,100.4934991,Bangkok,Thailand,,,,,,,,,https://www.openstreetmap.org/node/2405904991
2406015239,Sweety,guesthouse,13.7576557,100.4998959,Bangkok,Thailand,,,,,,,,,https://www.openstreetmap.org/node/2406015239
2406015241,C.H. 2,guesthouse,13.7577519,100.5000585,Bangkok,Thailand,,,,,,,,,https://www.openstreetmap.org/node/2406015241
2406015801,Nat 2,guesthouse,13.7577272,100.5001748,Bangkok,Thailand,,,,,,,,,https://www.openstreetmap.org/node/2406015801
2407450093,The Bed & Breakfast,guesthouse,13.7484256,100.5296375,Bangkok,Thailand,,,,,,,,,https://www.openstreetmap.org/node/2407450093
2408310584,ETZ Hostel,hostel,13.7241696,100.5483429,Bangkok,Thailand,,+6622869424,http://www.etzhostel.com,,wlan,no,,,https://www.openstreetmap.org/node/2408310584
2408317219,HQ Hostel,hostel,13.7266192,100.531037,Bangkok,Thailand,,,,,,,,,https://www.openstreetmap.org/node/2408317219
2409390580,For You Residence,guesthouse,13.7238901,100.5219987,Bangkok,Thailand,,,,,,,,,https://www.openstreetmap.org/node/2409390580
2409395729,Kenny Guest House,guesthouse,13.7208849,100.5471393,Bangkok,Thailand,,,,,,,,,https://www.openstreetmap.org/node/2409395729
2409395730,Lee Travel Inn,guesthouse,13.7207814,100.5480203,Bangkok,Thailand,"Sri Bumpen Alley (Saphan Khu), Rama IV Rd., Sathon",(662)-6798116,https://www.leetravelinn.com/,,wlan,,,,https://www.openstreetmap.org/node/2409395730
2409395734,Lido Guest House,guesthouse,13.7207052,100.5472466,Bangkok,Thailand,,,,,,,,,https://www.openstreetmap.org/node/2409395734
2426034168,Slumber Party Pool Party Khao San,guesthouse,13.7585271,100.4962923,Bangkok,Thailand,Mayom,,https://www.liveslumberparty.com/,,wlan,,Slumber Party,,https://www.openstreetmap.org/node/2426034168
2428799926,Charoendee Hostel,hostel,13.7589958,100.4976222,Bangkok,Thailand,,,,,,no,,,https://www.openstreetmap.org/node/2428799926
2499846890,Barn Thai Guesthous,hostel,13.7588392,100.4958204,Bangkok,Thailand,,,,,,no,,,https://www.openstreetmap.org/node/2499846890
2507993713,De Talak Hostel,guesthouse,13.7205958,100.5616379,Bangkok,Thailand,,+66868874028,,,,,,,https://www.openstreetmap.org/node/2507993713
2511160345,Preme,hostel,13.7354055,100.5634798,Bangkok,Thailand,,,,,,,,,https://www.openstreetmap.org/node/2511160345
2572645362,Marriott Vacation Club,guesthouse,13.7189289,100.5311883,Bangkok,Thailand,,+66 2 2108000,https://www.marriottvacationclub.com/vacation-resorts/marriott-empire-place-resort/overview.shtml,,yes,,The Empire Place,,https://www.openstreetmap.org/node/2572645362
2621872482,Serene Bangkok Bed & Breakfast,guesthouse,13.8301625,100.5637193,Bangkok,Thailand,Soi Ratchadapisek 46/1,+66 2 9302009;+66 2 9302291;+66 81 8270842,http://baanserene.com,,,,,,https://www.openstreetmap.org/node/2621872482
2653354678,Lilly's Hostel,hostel,13.7632352,100.4991595,Bangkok,Thailand,,091 104 3445,,24/7,wlan,,,,https://www.openstreetmap.org/node/2653354678
2688454909,Asok Monti Hostel,hostel,13.738739,100.5602646,Bangkok,Thailand,,,,,,,,,https://www.openstreetmap.org/node/2688454909
2703771524,Shanti Lodge,guesthouse,13.7719701,100.5035084,Bangkok,Thailand,ถนนศรีอยุธยา,,https://www.shantilodge.com/page/shanti-bangkok,,,,,,https://www.openstreetmap.org/node/2703771524
2726968424,Yim Huai Khwang Hostel,hostel,13.778482,100.5749978,Bangkok,Thailand,ถนนประชาราษฎร์บำเพ็ญ,+66 2 1186038,http://www.yimhuaikhwang.com,,,yes,Yim Huai Khwang,,https://www.openstreetmap.org/node/2726968424
2893548580,Siam Journey Guesthouse,hostel,13.755314,100.531298,Bangkok,Thailand,ซอยน้อมจิตต์,+66 2 162 0620,http://www.siamjourneyguesthouse.com/,,,,,,https://www.openstreetmap.org/node/2893548580
2938354801,Bed Bangkok Hostel,hostel,13.7442165,100.5509582,Bangkok,Thailand,Sukhumvit Road Soi 1,,http://www.bedbangkok.com,,,,,,https://www.openstreetmap.org/node/2938354801
2995448632,H2 Hostel,hostel,13.7136777,100.5268223,Bangkok,Thailand,,,https://www.h2bkk.com/,,,,,,https://www.openstreetmap.org/node/2995448632
3037235452,Baan Pun Thong,guesthouse,13.759308,100.4995013,Bangkok,Thailand,,,,,,,,,https://www.openstreetmap.org/node/3037235452
3083236045,Littlest Guesthouse,guesthouse,13.7182114,100.5207831,Bangkok,Thailand,,,,,,,,,https://www.openstreetmap.org/node/3083236045
3150130029,Born Free Hostel,hostel,13.7617611,100.4979867,Bangkok,Thailand,Chakrapong Road,,,,,,Born Free,,https://www.openstreetmap.org/node/3150130029
3150130030,Feel at Home Backpackers,hostel,13.7618194,100.4980703,Bangkok,Thailand,,,,,,,,,https://www.openstreetmap.org/node/3150130030
3150130035,Born Free Hostel,hostel,13.7643609,100.4999041,Bangkok,Thailand,Samsen Soi 6,,https://www.bornfreeadventures.com/,,,,Born Free,,https://www.openstreetmap.org/node/3150130035
3200611806,Three of a Kind,hostel,13.7232864,100.5230082,Bangkok,Thailand,,,,,,,,,https://www.openstreetmap.org/node/3200611806
3226443017,Best Ocean Resort,guesthouse,13.5451545,100.3278795,Bangkok,Thailand,,,,,,,,,https://www.openstreetmap.org/node/3226443017
3255004461,Monomer Hostel,hostel,13.7529189,100.5311982,Bangkok,Thailand,Soi Phetchaburi16,,,,,,,,https://www.openstreetmap.org/node/3255004461
3256556870,Baan Nampetch Hostel,hostel,13.7611311,100.5016091,Bangkok,Thailand,,,,,,,,,https://www.openstreetmap.org/node/3256556870
3272167257,Bed Station Hostel,hostel,13.7532575,100.5311223,Bangkok,Thailand,Soi Phetchaburi16,,,,yes,,,,https://www.openstreetmap.org/node/3272167257
3289087961,Narry Inn,guesthouse,13.7404772,100.5567651,Bangkok,Thailand,,+66 22549185,,,,,,,https://www.openstreetmap.org/node/3289087961
3323058261,The city @ Fifty,hostel,13.7064806,100.5923303,Bangkok,Thailand,,006627428066,,,wlan,no,,,https://www.openstreetmap.org/node/3323058261
3324207867,Pridi Hostel,hostel,13.731417,100.5967254,Bangkok,Thailand,,,,,,,,,https://www.openstreetmap.org/node/3324207867
3334483897,Phra Kanong Hostel,hostel,13.7145901,100.5939447,Bangkok,Thailand,,,,,,,,,https://www.openstreetmap.org/node/3334483897
3488636323,Walk Inn,guesthouse,13.7587386,100.499391,Bangkok,Thailand,,,,,,,,,https://www.openstreetmap.org/node/3488636323
3534442193,Back Home Backpackers,hostel,13.7632295,100.4993838,Bangkok,Thailand,,,,,,,,,https://www.openstreetmap.org/node/3534442193
3536107977,Hostel Jade Sada,hostel,13.7631265,100.4991169,Bangkok,Thailand,,,,,,,,,https://www.openstreetmap.org/node/3536107977
3536107980,La Rivetta Bangkok,hostel,13.7631181,100.4993204,Bangkok,Thailand,,,,,,,,,https://www.openstreetmap.org/node/3536107980
3593895307,Ma:D Social Entepreneurs Hub,coworking,13.72458,100.5873074,Bangkok,Thailand,,,,,,,,,https://www.openstreetmap.org/node/3593895307
3626112297,ศูนย์บริการสาธารณสุข 40 สาขาบางแคเหนือ,hostel,13.7050409,100.3845052,Bangkok,Thailand,,,,,,,,,https://www.openstreetmap.org/node/3626112297
3706275349,Resort Bang Phlat,guesthouse,13.7900649,100.5028076,Bangkok,Thailand,,,http://www.resortbangphlat.com,,,,,,https://www.openstreetmap.org/node/3706275349
3706287896,Marina House,apartment,13.7878235,100.5049858,Bangkok,Thailand,,,http://marinahouse.bangpladliving.com/,,,,,,https://www.openstreetmap.org/node/3706287896
3717247498,Mile Map Hostel,hostel,13.7237779,100.5229274,Bangkok,Thailand,,,,,,,,,https://www.openstreetmap.org/node/3717247498
3718445444,Very Small Hip Suite,guesthouse,13.7731554,100.572987,Bangkok,Thailand,,,,,,,,,https://www.openstreetmap.org/node/3718445444
3724152154,J.N. Dormitory,hostel,13.7826282,100.5726136,Bangkok,Thailand,,,,,,,,,https://www.openstreetmap.org/node/3724152154
3860313778,Grand Business Inn,guesthouse,13.7403052,100.556517,Bangkok,Thailand,,,,,,,,,https://www.openstreetmap.org/node/3860313778
3877687708,China Mansion,guesthouse,13.7350074,100.5603703,Bangkok,Thailand,,+6622294300,,,,,,,https://www.openstreetmap.org/node/3877687708
3877687712,The Connex Asoke Hotel,guesthouse,13.7356833,100.5608524,Bangkok,Thailand,ถนนราชพฤกษ์,+66 2 229 4405,http://www.theconnexasoke.com/,,wlan,,,,https://www.openstreetmap.org/node/3877687712
3877799793,Blocks,hostel,13.738364,100.557686,Bangkok,Thailand,,,,,,,,,https://www.openstreetmap.org/node/3877799793
3878917073,Granny Bike.bed,guesthouse,13.7497024,100.4983832,Bangkok,Thailand,,,,,wlan,,Neemo and Parn,,https://www.openstreetmap.org/node/3878917073
3887488392,My Friend,guesthouse,13.7612291,100.4970801,Bangkok,Thailand,,,,,,,,,https://www.openstreetmap.org/node/3887488392
3887488393,Rest Inn,hostel,13.7612278,100.4969858,Bangkok,Thailand,,,,,,,,,https://www.openstreetmap.org/node/3887488393
3887491780,Universe @ Home,guesthouse,13.761398,100.4972673,Bangkok,Thailand,,,,,,,,,https://www.openstreetmap.org/node/3887491780
3887491782,ビックブルーオフィス,guesthouse,13.7610389,100.4968656,Bangkok,Thailand,,,,,,,,,https://www.openstreetmap.org/node/3887491782
3892241365,The Secret Service,guesthouse,13.7602535,100.4984146,Bangkok,Thailand,,,,,,,,,https://www.openstreetmap.org/node/3892241365
3894724840,Wayla Hostel,hostel,13.7666356,100.5007815,Bangkok,Thailand,,,,,,,,,https://www.openstreetmap.org/node/3894724840
3933649924,Samsen 360 Hostel,hostel,13.7628178,100.5010248,Bangkok,Thailand,Samsen Road,,,,,,,,https://www.openstreetmap.org/node/3933649924
3965355804,Udee Bangkok,hostel,13.7928814,100.5455479,Bangkok,Thailand,ประดิพัทธิ์ 19,,,,,,,,https://www.openstreetmap.org/node/3965355804
4021629634,@Hua Lamphong Hostel,hostel,13.7372756,100.5168899,Bangkok,Thailand,Rama 4 Rd,+66 2 639 1925,http://www.at-hualamphong.com,,,,,,https://www.openstreetmap.org/node/4021629634
4052460126,In A Box,hostel,13.7558817,100.5337246,Bangkok,Thailand,"Soi Kolit, Phayathai Road",,https://in-a-box-hostel.bangkokthaihotels.com/en/,,,,,,https://www.openstreetmap.org/node/4052460126
4069626952,Viman,guesthouse,13.7634674,100.4977952,Bangkok,Thailand,,,http://vimanguesthouse.com/,,,,,,https://www.openstreetmap.org/node/4069626952
4084646015,T-boutique Hostel,hostel,13.7381408,100.5205475,Bangkok,Thailand,,,,,,,,,https://www.openstreetmap.org/node/4084646015
4102210692,Life Ratchadapisek,hostel,13.782851,100.5745199,Bangkok,Thailand,ถนนรัชดาภิเษก,,,,,,,,https://www.openstreetmap.org/node/4102210692
4104680089,หมู่บ้านพฤษา56 สุขสวัสข์,hostel,13.5898607,100.5657114,Bangkok,Thailand,ซอยหมู่บ้านร่มเย็นนิเวศน์,,,,,,,,https://www.openstreetmap.org/node/4104680089
4107052789,Blissotel Ratchada,hostel,13.7622381,100.5648773,Bangkok,Thailand,Ratchadapsiek Soi 3,02 641 1694,,,,,,,https://www.openstreetmap.org/node/4107052789
4125251089,สำนักพิมพ์ต้นฉบับ,guesthouse,13.8676408,100.5357721,Bangkok,Thailand,,,,,,,,,https://www.openstreetmap.org/node/4125251089
4126724289,หมู่บ้านพฤษา 56 สุขสวัสข์,hostel,13.5898344,100.5660086,Bangkok,Thailand,ซอยหมู่บ้านร่มเย็นนิเวศน์,,,,,,,,https://www.openstreetmap.org/node/4126724289
4128421567,Supalai City Resort Ramkhamhaeng,guesthouse,13.7523477,100.610975,Bangkok,Thailand,ถนนรามคำแหง,,,,,,,,https://www.openstreetmap.org/node/4128421567
4133011589,ลุมพินีวิลล์ อ่อนนุช-ลาดกระบัง 2,hostel,13.7211321,100.7040365,Bangkok,Thailand,,,,,,,,,https://www.openstreetmap.org/node/4133011589
4142153889,Kamin Bird Hostel,hostel,13.7729867,100.5717948,Bangkok,Thailand,,,,,wlan,,,,https://www.openstreetmap.org/node/4142153889
4148645289,Here Hostel,hostel,13.7556608,100.5035135,Bangkok,Thailand,,+66909877438,https://www.herehostel.com/,Mo-Su 07:00-21:00,wlan,,,,https://www.openstreetmap.org/node/4148645289
4149696289,บ้านพฤษา56 สุขสวัสข์,hostel,13.5898016,100.5658633,Bangkok,Thailand,ซอยหมู่บ้านร่มเย็นนิเวศน์,,,,,,,,https://www.openstreetmap.org/node/4149696289
4150097290,DD home,guesthouse,13.7561826,100.5357264,Bangkok,Thailand,Phetchaburi 11,+6622501960,,,wlan,,,,https://www.openstreetmap.org/node/4150097290
4158926989,Miggy Guest House,guesthouse,13.7207489,100.5464188,Bangkok,Thailand,ซอยศรีบําเพ็ญ,0950615619,,24/7,wlan,,,,https://www.openstreetmap.org/node/4158926989
4161559690,Chaiwat Guesthouse,guesthouse,13.743963,100.4924056,Bangkok,Thailand,,,,,,,,,https://www.openstreetmap.org/node/4161559690
4164247289,Tia Thai Hostel,hostel,13.7708,100.5661812,Bangkok,Thailand,,,,,,,,,https://www.openstreetmap.org/node/4164247289
4170730489,ศุภราช อพาทต์เมนต์,guesthouse,13.7858982,100.5514436,Bangkok,Thailand,Inthamara 4,026166601,,,,,,,https://www.openstreetmap.org/node/4170730489
4173892089,Flapping Duck Guest House,guesthouse,13.7645916,100.4960681,Bangkok,Thailand,Samsen Soi 1,,www.flappingduckguesthouse.com,,wlan,,,,https://www.openstreetmap.org/node/4173892089
4181473477,Bangkok Story,hostel,13.7359782,100.5126385,Bangkok,Thailand,,,https://www.facebook.com/BangkokStoryHostel/,,,,,,https://www.openstreetmap.org/node/4181473477
4188359992,Laksameenarai Guesthouse,guesthouse,13.7586919,100.495822,Bangkok,Thailand,Trok Mayom,,,,wlan,,,,https://www.openstreetmap.org/node/4188359992
4192190290,หมู่บ้าน พฤษา56 สุขสวัสข์,hostel,13.5898319,100.5657816,Bangkok,Thailand,สุขสวัสดิ์,,,,,,,,https://www.openstreetmap.org/node/4192190290
4193431091,Khaosan Immjai GH,guesthouse,13.7637998,100.4987832,Bangkok,Thailand,,,,,,,,,https://www.openstreetmap.org/node/4193431091
4193443889,Bonita House,guesthouse,13.7651137,100.4976672,Bangkok,Thailand,ซอยสามเสน 3,+6626292095,,,wlan,no,,,https://www.openstreetmap.org/node/4193443889
4193550794,Vayu Guest House,guesthouse,13.7593622,100.4959037,Bangkok,Thailand,,,,,,,,,https://www.openstreetmap.org/node/4193550794
4196949697,The Oasis Hostel Bangkok,hostel,13.7626507,100.5012908,Bangkok,Thailand,Samsen Soi 2,+66 97 006 3099,,,,,,,https://www.openstreetmap.org/node/4196949697
4206062989,First Inn Bangkok,hostel,13.7084182,100.5987267,Bangkok,Thailand,,,,,wlan,,,,https://www.openstreetmap.org/node/4206062989
4220793491,Warm White Hostel,hostel,13.7617043,100.4975686,Bangkok,Thailand,,020408684,,,wlan,,,,https://www.openstreetmap.org/node/4220793491
4221789924,Khaosan lovers hostel,hostel,13.7605423,100.5018184,Bangkok,Thailand,,,,,,,,,https://www.openstreetmap.org/node/4221789924
4226198391,JC House,hostel,13.7624268,100.5038659,Bangkok,Thailand,ถนนประชาธิปไตย,,,,wlan,,,,https://www.openstreetmap.org/node/4226198391
4231228397,ดอนเจดีย์ แมนชั่น,hostel,13.8760296,100.5161053,Bangkok,Thailand,,,,,,,,,https://www.openstreetmap.org/node/4231228397
4231228398,Da condo,hostel,13.8723852,100.5176368,Bangkok,Thailand,,,,,,,,,https://www.openstreetmap.org/node/4231228398
4232974189,Fun Wan Hostel Bangkok,hostel,13.7434006,100.5560552,Bangkok,Thailand,ถนนสุขุมวิท ซอย 11,,,,wlan,,Fun Wan Hostel Bangkok,,https://www.openstreetmap.org/node/4232974189
4235434813,Kama,guesthouse,13.7028232,100.5137591,Bangkok,Thailand,,+66600024103,www.kamabangkok.com,Mo-Su 08:00-23:00,wlan,,,,https://www.openstreetmap.org/node/4235434813
4238653790,คอนโดเดอะคี,hostel,13.7135108,100.4650374,Bangkok,Thailand,,,,,,,,,https://www.openstreetmap.org/node/4238653790
4244512392,Niras Bankoc Cultural Hostel,hostel,13.7523565,100.5044639,Bangkok,Thailand,ถนนมหาไชย,,,,,no,,,https://www.openstreetmap.org/node/4244512392
4270871690,K.D.M Hostel,hostel,13.9228476,100.596954,Bangkok,Thailand,,,,,,,,,https://www.openstreetmap.org/node/4270871690
4271433404,The Mix Bangkok,guesthouse,13.7152228,100.5914088,Bangkok,Thailand,ถนนสุขุมวิท,,,,,,,,https://www.openstreetmap.org/node/4271433404
4275543293,HI Mid Bangkok,hostel,13.7643275,100.54067,Bangkok,Thailand,ถนนราชวิถี,026445744,Facebook.com/Midbangkok,24/7,wlan,,,,https://www.openstreetmap.org/node/4275543293
4280539895,fan,hostel,13.7427914,100.5563786,Bangkok,Thailand,,,,,,,,,https://www.openstreetmap.org/node/4280539895
4283515289,Oh Bangkok Hostel,hostel,13.7628945,100.5016078,Bangkok,Thailand,,,,,,,,,https://www.openstreetmap.org/node/4283515289
4292998190,Prince house,guesthouse,13.7536979,100.538623,Bangkok,Thailand,,,,,,,,,https://www.openstreetmap.org/node/4292998190
4316590300,Baanbangkok,hostel,13.7634803,100.5001495,Bangkok,Thailand,Samsen Soi 4,020458100,facebook.com/baanboran,"Mo-Su 07:00-11:15, 19:45-00:00",wlan,,,,https://www.openstreetmap.org/node/4316590300
4317753490,หอพักกรีนสเปซ อพาร์ทเมนท์,hostel,13.828768,100.5593386,Bangkok,Thailand,ซอยวิภาวดี 36 แยก 2,,,,,,,,https://www.openstreetmap.org/node/4317753490
4318041089,สตูดิโอ อ.ปัญญา,guesthouse,13.8091941,100.3313521,Bangkok,Thailand,,,,,,,,,https://www.openstreetmap.org/node/4318041089
4325275091,สุขเหมือน แมนชั่น,hostel,13.8367921,100.7185609,Bangkok,Thailand,ถนนหทัยราษฎร์,0945647776,http://www.facebook.com/sukmuanmansion,Mo-Su 08:00-18:00,wlan,,สุขเหมือน,,https://www.openstreetmap.org/node/4325275091
4329284690,New Siam Palace Ville,guesthouse,13.7599606,100.4930821,Bangkok,Thailand,โรงไหม,+6622824142,https://www.newsiampalaceville.com/,,,,,,https://www.openstreetmap.org/node/4329284690
4332572753,อุทยานทอง,hostel,13.9120423,100.5302217,Bangkok,Thailand,,,,,,,,,https://www.openstreetmap.org/node/4332572753
4332604191,Arayan ​Sweet​ Suie,hostel,13.7855383,100.565965,Bangkok,Thailand,Inthamara 34,,,,,,,,https://www.openstreetmap.org/node/4332604191
4333555393,etzz hotel,guesthouse,13.7241231,100.5484678,Bangkok,Thailand,,,,,,,,,https://www.openstreetmap.org/node/4333555393
4340816890,The Overstay,hostel,13.7755515,100.4840855,Bangkok,Thailand,ถนนจรัญสนิทวงศ์,02 883 4836,https://www.theoverstay.com/,24/7,wlan,,,,https://www.openstreetmap.org/node/4340816890
4345171289,81แมนชั่น,hostel,13.7091587,100.6050613,Bangkok,Thailand,ซอย สุขุมวิท77,,,24/7,,,,,https://www.openstreetmap.org/node/4345171289
4350367489,Khao San Rainbow Hostel,hostel,13.7594456,100.4953087,Bangkok,Thailand,,,,,,,,,https://www.openstreetmap.org/node/4350367489
4352783098,New Phiman Riverview,hostel,13.767029,100.4976323,Bangkok,Thailand,,,,,,,,,https://www.openstreetmap.org/node/4352783098
4356305293,โรงแรมวิลล่า ชาช่า,guesthouse,13.7604992,100.497404,Bangkok,Thailand,ตานี,66 (0) 22801025-7,https://www.villachacha.com/,24/7,wlan,,,,https://www.openstreetmap.org/node/4356305293
4358995490,ST Mansion,hostel,13.767534,100.5489225,Bangkok,Thailand,ซอยรวมมิตร,021169557,,Mo-Su 08:00-18:00,,,0615678554,,https://www.openstreetmap.org/node/4358995490
4367330089,Been Hostel Ratchathewi,hostel,13.7514118,100.5302134,Bangkok,Thailand,,,,,,,,,https://www.openstreetmap.org/node/4367330089
4391369989,สุดา เถือนเมือง,hostel,13.8761573,100.499798,Bangkok,Thailand,,,,,,,,,https://www.openstreetmap.org/node/4391369989
4393185289,Second Home Hostel,hostel,13.7615131,100.4973877,Bangkok,Thailand,,,,,,,,,https://www.openstreetmap.org/node/4393185289
4414403190,W18 Hostel,hostel,13.7268865,100.5331596,Bangkok,Thailand,ถนนคอนแวนต์,022335688,http://www.w18hostel.com,24/7,wlan,,Long Mao,,https://www.openstreetmap.org/node/4414403190
4414590593,สินสิริแมนชั่น3,guesthouse,13.7863616,100.6134869,Bangkok,Thailand,,,,,,,,,https://www.openstreetmap.org/node/4414590593
4421905590,หมู่บ้านเพอร์เฟค เพลส รัตนาธิเบศร์,guesthouse,13.8829692,100.4682847,Bangkok,Thailand,ไทรม้า ซอย 3,,,,,,,,https://www.openstreetmap.org/node/4421905590
4424558089,บ้านพักพนักงาน,guesthouse,13.70537,100.4168755,Bangkok,Thailand,,,,,,,,,https://www.openstreetmap.org/node/4424558089
4438510689,1989,hostel,13.7263993,100.5651972,Bangkok,Thailand,,,,,wlan,,,,https://www.openstreetmap.org/node/4438510689
4460699218,Home16 Hostel 16 Sukhumvit,hostel,13.7296662,100.5603924,Bangkok,Thailand,ซอยสุขุมวิท 16,,,,wlan,,,,https://www.openstreetmap.org/node/4460699218
4462148789,บ้านวัชรพล,guesthouse,13.8727475,100.644395,Bangkok,Thailand,,,,,,,,,https://www.openstreetmap.org/node/4462148789
4469063952,I Sabai,hostel,13.7396623,100.5655217,Bangkok,Thailand,,,,,,,,,https://www.openstreetmap.org/node/4469063952
4469095586,August Residence,guesthouse,13.7392997,100.5664234,Bangkok,Thailand,,+6622588614,http://www.augustresidence.com/,,,,,,https://www.openstreetmap.org/node/4469095586
4469095588,Mahajak Residence,guesthouse,13.7395535,100.5662825,Bangkok,Thailand,,,,,,,,,https://www.openstreetmap.org/node/4469095588
4475356247,Yadoya,guesthouse,13.7256108,100.5793832,Bangkok,Thailand,,+6623919098,,,,,,,https://www.openstreetmap.org/node/4475356247
4475532650,Lucky Hotel,guesthouse,13.7268366,100.5700454,Bangkok,Thailand,,,,,,,,,https://www.openstreetmap.org/node/4475532650
4475532651,One Day,hostel,13.7265419,100.5702981,Bangkok,Thailand,,,,,,,,,https://www.openstreetmap.org/node/4475532651
4475556536,JP Guest House,guesthouse,13.7290666,100.5705396,Bangkok,Thailand,,,,,,,,,https://www.openstreetmap.org/node/4475556536
4483878559,Wanderlust Hostel,hostel,13.7183534,100.7624623,Bangkok,Thailand,Ladkrabang40,,,,,,,,https://www.openstreetmap.org/node/4483878559
4484651850,Baan Sukhumvit,guesthouse,13.7337847,100.5634207,Bangkok,Thailand,,,,,,,,,https://www.openstreetmap.org/node/4484651850
4484651853,Drop Inn,guesthouse,13.7339553,100.5634127,Bangkok,Thailand,,,,,,,,,https://www.openstreetmap.org/node/4484651853
4484651857,Queen Lotus Guest House,guesthouse,13.7341338,100.5635927,Bangkok,Thailand,,,,,,,,,https://www.openstreetmap.org/node/4484651857
4485775990,ห้วยขวางสมใจแมนชั่น,guesthouse,13.768793,100.574413,Bangkok,Thailand,,,,,wlan,,,,https://www.openstreetmap.org/node/4485775990
4505520290,Unitato Hostel,hostel,13.7760589,100.5453051,Bangkok,Thailand,พหลโยธิน ซอย 2,0925966105,http://Facebook.com,24/7,wlan,,,,https://www.openstreetmap.org/node/4505520290
4531175815,สินเพชรคอนโดทาวน์,apartment,13.704218,100.3376361,Bangkok,Thailand,,,,,,,,,https://www.openstreetmap.org/node/4531175815
4535608279,Pailin Guest House,guesthouse,13.7632013,100.4983164,Bangkok,Thailand,Samsen Road,+66615615465,,,wlan,,,,https://www.openstreetmap.org/node/4535608279
4547414398,Rajthivi Apartment,guesthouse,13.7513057,100.5336432,Bangkok,Thailand,Phetchaburi 18,,,,,,,,https://www.openstreetmap.org/node/4547414398
4561184592,บ้านพี่ตั้ม 50/270,guesthouse,13.808643,100.439063,Bangkok,Thailand,,,,,,,,,https://www.openstreetmap.org/node/4561184592
4570580097,บ้านปริณดา,hostel,13.721466,100.786399,Bangkok,Thailand,ถนนลาดกระบัง,,,,,,,,https://www.openstreetmap.org/node/4570580097
4571639195,Wabisabi Huai Khwang,hostel,13.7760785,100.5817308,Bangkok,Thailand,ซอยประชาราษฎร์บำเพ็ญ 18,,,,,,,,https://www.openstreetmap.org/node/4571639195
4574236990,ห้องนอนแอนตี้กับแสตมป์,hostel,13.7659004,100.6534926,Bangkok,Thailand,ถนนรามคำแหง,,,,,,,,https://www.openstreetmap.org/node/4574236990
4574256589,ห้องนอนแอนตี้กับแสคมป์,hostel,13.7659212,100.6535068,Bangkok,Thailand,ถนนรามคำแหง,,,,,,,,https://www.openstreetmap.org/node/4574256589
4577342177,SidaRe - Bed&Breakfast,guesthouse,13.7875327,100.5754149,Bangkok,Thailand,,,,,,,,,https://www.openstreetmap.org/node/4577342177
4580622409,Mansion,guesthouse,13.9207957,100.6878969,Bangkok,Thailand,,,,,,,,,https://www.openstreetmap.org/node/4580622409
4593136478,Honey Place guesthouse,guesthouse,13.7592413,100.4996052,Bangkok,Thailand,,,,,wlan,,,,https://www.openstreetmap.org/node/4593136478
4593858289,Zleep63 Hostel,hostel,13.9232619,100.5969672,Bangkok,Thailand,,,,,wlan,,,,https://www.openstreetmap.org/node/4593858289
4596615990,ทีพีเอ็ม แมนชั่น,hostel,13.7640233,100.64152,Bangkok,Thailand,,,,,,,,,https://www.openstreetmap.org/node/4596615990
4601113494,Siam City Bank,guesthouse,13.7519685,100.5355266,Bangkok,Thailand,,,,,,,,,https://www.openstreetmap.org/node/4601113494
4602981845,74Mansion,guesthouse,13.7482892,100.5269243,Bangkok,Thailand,,,http://74mansion.com/,,no,,,,https://www.openstreetmap.org/node/4602981845
4605890267,Loftel station hostel,hostel,13.7366173,100.5186255,Bangkok,Thailand,Trok La-o Rama,+66 83 017 0234,,,,,,,https://www.openstreetmap.org/node/4605890267
4605890321,2w bed and breakfast,guesthouse,13.7387125,100.51454,Bangkok,Thailand,,,,,,limited,,,https://www.openstreetmap.org/node/4605890321
4605902933,Banthat Thong Hostel,hostel,13.7385596,100.5214896,Bangkok,Thailand,18Banthat thong Road Soi Soontornpimon,+66 63 824 9979,http://www.banthatthonghostel.com/,,,,,,https://www.openstreetmap.org/node/4605902933
4611602728,SidaRe - Bed&Breakfast - house 2,guesthouse,13.7871999,100.5761094,Bangkok,Thailand,,,,,,,,,https://www.openstreetmap.org/node/4611602728
4627631573,OYO Plai and Herbs Suvarnabhumi,guesthouse,13.7093576,100.7346274,Bangkok,Thailand,,,https://www.plaigarden.com/,,wlan,,,,https://www.openstreetmap.org/node/4627631573
4663623201,Rainbow hostel,guesthouse,13.7593435,100.4951561,Bangkok,Thailand,,,,,,,,,https://www.openstreetmap.org/node/4663623201
4673946990,วิจิตรธาดา,guesthouse,13.7631968,100.4987437,Bangkok,Thailand,,,,,,,,,https://www.openstreetmap.org/node/4673946990
4684549802,baankerk,hostel,13.8921531,100.5803854,Bangkok,Thailand,,,,,,,,,https://www.openstreetmap.org/node/4684549802
4698359494,ไทยทองอาพาร์ทเม้น,hostel,13.6885048,100.4251336,Bangkok,Thailand,,,,,,,,,https://www.openstreetmap.org/node/4698359494
4702955891,แฟลตพี่ตุ๊,hostel,13.9336481,100.5665922,Bangkok,Thailand,,,,,,,,,https://www.openstreetmap.org/node/4702955891
4707359789,Rungjaroen,hostel,13.7845215,100.4855252,Bangkok,Thailand,,,,,,,,,https://www.openstreetmap.org/node/4707359789
4715288892,Grace Apartments,apartment,13.7885588,100.5908076,Bangkok,Thailand,ลาดพร้าว 64 แยก 4,,,,,,,,https://www.openstreetmap.org/node/4715288892
4715398189,K&K Residences,apartment,13.7831431,100.6365361,Bangkok,Thailand,"Soi Lat Phrao 107, Lane 28",,,,,,,,https://www.openstreetmap.org/node/4715398189
4728593489,Au Bon Hostel,hostel,13.7547434,100.4970553,Bangkok,Thailand,,,,,wlan,,,,https://www.openstreetmap.org/node/4728593489
4739296321,Chaiwat Guesthouse,guesthouse,13.744012,100.4923154,Bangkok,Thailand,Maha Rat Rd,087 014 4433,,,wlan,,,,https://www.openstreetmap.org/node/4739296321
4744950055,Sleep lab,hostel,13.75579,100.5334881,Bangkok,Thailand,,,,,,,,,https://www.openstreetmap.org/node/4744950055
4744952697,Vimarn hostel,hostel,13.7545846,100.5329648,Bangkok,Thailand,,,,,,yes,,,https://www.openstreetmap.org/node/4744952697
4744952708,DD hostel Bangkok,hostel,13.7630593,100.5433471,Bangkok,Thailand,,,,,,,,,https://www.openstreetmap.org/node/4744952708
4745106721,Tavee Guesthouse,guesthouse,13.7721022,100.503729,Bangkok,Thailand,ถนนศรีอยุธยา,+662 2801447,http://www.facebook.com/taveeguesthouse,24/7,wlan,,,,https://www.openstreetmap.org/node/4745106721
4748339224,By The Station Guesthouse,hostel,13.7484135,100.5282523,Bangkok,Thailand,,,,,,,,,https://www.openstreetmap.org/node/4748339224
4761126221,Taewez Guesthouse,guesthouse,13.7719901,100.5033153,Bangkok,Thailand,,,,,,,,,https://www.openstreetmap.org/node/4761126221
4775117733,3House,guesthouse,13.758804,100.4988686,Bangkok,Thailand,,,,,,,,,https://www.openstreetmap.org/node/4775117733
4775117734,Jekky's Homestay,guesthouse,13.7854714,100.5516512,Bangkok,Thailand,,,,,,,,,https://www.openstreetmap.org/node/4775117734
4776503322,YHA ( บ้านนานาชาติสีลม),guesthouse,13.7261692,100.5284521,Bangkok,Thailand,,,,,,,,,https://www.openstreetmap.org/node/4776503322
4783704867,Flying Cow,hostel,13.7648403,100.4997097,Bangkok,Thailand,,,,,,,,,https://www.openstreetmap.org/node/4783704867
4783704868,N.Y.B Guesthouse,guesthouse,13.7596612,100.4970409,Bangkok,Thailand,,,,,,,,,https://www.openstreetmap.org/node/4783704868
4786813424,Full House Apartments,hostel,13.7845965,100.4892242,Bangkok,Thailand,,,,,,,,,https://www.openstreetmap.org/node/4786813424
4792570642,Lumpini Water Cliff Building: D,apartment,13.7002608,100.5385165,Bangkok,Thailand,,,,,,,,,https://www.openstreetmap.org/node/4792570642
4798638825,The Mixx Hostel,hostel,13.7596396,100.4974742,Bangkok,Thailand,รามบุตรี,,,,wlan,,,,https://www.openstreetmap.org/node/4798638825
4801119921,ดูดี 105 โฮสเทล แอนด์ คาเฟ่,hostel,13.6604431,100.6121066,Bangkok,Thailand,,097-276-8190,http://www.dodee105.com,Mo-Su 08:00-20:00,wlan,,,,https://www.openstreetmap.org/node/4801119921
4805101922,ห้องพักชิวๆ,hostel,13.7435323,100.4162383,Bangkok,Thailand,,,,,,,,,https://www.openstreetmap.org/node/4805101922
4808909921,ต้อม,hostel,13.5769967,100.4173131,Bangkok,Thailand,Bang Khun Thien Soi 25,,,,,,,,https://www.openstreetmap.org/node/4808909921
4817911124,All In One Hostel,hostel,13.7606448,100.4975489,Bangkok,Thailand,,,,,,,,,https://www.openstreetmap.org/node/4817911124
4827665531,ริชเชส เรสซิเด้นซ์,hostel,13.8892681,100.6104785,Bangkok,Thailand,ถนนพหลโยธิน,,,,,,,,https://www.openstreetmap.org/node/4827665531
4853921301,Jeesnail Guesthouse,guesthouse,13.7735198,100.4746955,Bangkok,Thailand,"361/26 Borommaratchachonnani Road,Busarakharam Village",,,,,,,,https://www.openstreetmap.org/node/4853921301
4865431792,Barani,hostel,13.7384264,100.5637615,Bangkok,Thailand,,,,,,no,,,https://www.openstreetmap.org/node/4865431792
4899365921,DD House,guesthouse,13.7534818,100.5388401,Bangkok,Thailand,,,,,,,,,https://www.openstreetmap.org/node/4899365921
4957879593,Fun Cafe and Hostel,hostel,13.7336191,100.5163923,Bangkok,Thailand,,,,,,,,,https://www.openstreetmap.org/node/4957879593
4968899825,Domingo Hostel Donmuang,hostel,13.912598,100.5914599,Bangkok,Thailand,ถนนช่างอากาศอุทิศ,,,,,,,,https://www.openstreetmap.org/node/4968899825
4992193123,The Train Guesthouse,guesthouse,13.7398228,100.5174046,Bangkok,Thailand,,,https://www.traveloka.com/en-th/hotel/thailand/train-guesthouse-1000000477004?spec=11-12-2017.12-12-2017.1.1.HOTEL.1000000477004.Train%20Guesthouse.1&prevSearchId=1586375005651884686,,wlan,,,,https://www.openstreetmap.org/node/4992193123
5020586721,Barnana,guesthouse,13.7636424,100.5001262,Bangkok,Thailand,,,,,,,,,https://www.openstreetmap.org/node/5020586721
5055873521,แอสเซมบลี้ โฮสเทล,hostel,13.7072355,100.5090827,Bangkok,Thailand,Soi Charoen Krung 81,+66986244446,http://www.facebook.com/assemblyhostel,Mo-Su 08:30-22:00,wlan,,Elf,,https://www.openstreetmap.org/node/5055873521
5168275321,The Oasis Hostel Chinatown,hostel,13.7414718,100.5148543,Bangkok,Thailand,ตรอกพันธจิตต์ 1,+66 (0) 21016493,https://www.theoasishostel.com/,Mo-Su 07:00-23:00,wlan,,"Somvadee Sroiphet, Peter Laird, Lasse Mortensen",,https://www.openstreetmap.org/node/5168275321
5180544827,Baan Chantra,guesthouse,13.7646481,100.4998748,Bangkok,Thailand,Samsen Road,,,,,,,,https://www.openstreetmap.org/node/5180544827
5185762861,D.DonMuang Hostel,hostel,13.9234231,100.6008673,Bangkok,Thailand,,,,,wlan,,,,https://www.openstreetmap.org/node/5185762861
5185990331,Add Home Hostel,hostel,13.9236805,100.6012978,Bangkok,Thailand,,,,,,,,,https://www.openstreetmap.org/node/5185990331
5213858622,Revolution Hostels,hostel,13.7385599,100.5653941,Bangkok,Thailand,Sukhumvit 23,,https://www.revolutionhostels.com/,Mo-Su 07:00-00:00,wlan,,Henrik Voigt,,https://www.openstreetmap.org/node/5213858622
5222619421,Mali Home Hostel,hostel,13.743976,100.509386,Bangkok,Thailand,,,,,wlan,,,,https://www.openstreetmap.org/node/5222619421
5223088624,Home Mali Hostel,hostel,13.74366,100.5092337,Bangkok,Thailand,,,,,,,,,https://www.openstreetmap.org/node/5223088624
5224592122,Mali Home Hostel,hostel,13.7537785,100.5304936,Bangkok,Thailand,ถนนเพชรบุรี,,https://booking.com/,,wlan,,,,https://www.openstreetmap.org/node/5224592122
5247875787,Star apartments,apartment,13.5969819,100.6064243,Bangkok,Thailand,"Sukhumvit road 
Soi 37 Ploemtoem
Pak Nam, Samut Prakan 
10270",,,,,,,,https://www.openstreetmap.org/node/5247875787
5248419424,tita irene,apartment,13.7109213,100.5234844,Bangkok,Thailand,,,,,,,,,https://www.openstreetmap.org/node/5248419424
5263491262,LPN Condotown Bodindecha-Ramkhamheang,apartment,13.7623263,100.6161442,Bangkok,Thailand,,,,,,,,,https://www.openstreetmap.org/node/5263491262
5265796401,Lumpini Park Petkasem 98,apartment,13.7096106,100.3828522,Bangkok,Thailand,,,,,,,,,https://www.openstreetmap.org/node/5265796401
5273088724,หอพักรักชัย,apartment,13.5638297,100.3036727,Bangkok,Thailand,ถนนเอกชัย,,,,wlan,,RuxChai Group,,https://www.openstreetmap.org/node/5273088724
5284362605,ปาล์มพาวิลเลียน,apartment,13.6329006,100.6192441,Bangkok,Thailand,,,,,,,,,https://www.openstreetmap.org/node/5284362605
5294929223,Regent Home 22,apartment,13.7048017,100.6068938,Bangkok,Thailand,ซอยสุขุมวิท 85,,,,,,,,https://www.openstreetmap.org/node/5294929223
5294996223,Deng place,apartment,13.7903256,100.6278491,Bangkok,Thailand,,,,,,,,,https://www.openstreetmap.org/node/5294996223
5298641921,Deng place,apartment,13.7891073,100.6268611,Bangkok,Thailand,,,,,,,,,https://www.openstreetmap.org/node/5298641921
5304381321,Dan place xmas,apartment,13.7252342,100.5096898,Bangkok,Thailand,,,,,,,,,https://www.openstreetmap.org/node/5304381321
5305799421,Lucky place,apartment,13.7500584,100.5787893,Bangkok,Thailand,,,,,,,,,https://www.openstreetmap.org/node/5305799421
5306769321,Bkkmenu,apartment,13.7500469,100.5766124,Bangkok,Thailand,,,,,,,,,https://www.openstreetmap.org/node/5306769321
5315842221,หมู่บ้าน mj,hostel,13.7121728,100.6232384,Bangkok,Thailand,,,,,,,,,https://www.openstreetmap.org/node/5315842221
5323667925,ธนภัทร แมนชั่น,apartment,13.7884072,100.4613308,Bangkok,Thailand,ถนนชัยพฤกษ์,02 8867310 2,,,,,,,https://www.openstreetmap.org/node/5323667925
5330877721,The Rooftop Residence,hostel,13.74486,100.5137994,Bangkok,Thailand,,,,24/7,wlan,,,,https://www.openstreetmap.org/node/5330877721
5338639725,Regent Home 22,apartment,13.7048725,100.6070012,Bangkok,Thailand,,,,,,,,,https://www.openstreetmap.org/node/5338639725
5344191226,K8 Hostel,hostel,13.7489661,100.4991268,Bangkok,Thailand,,,,,,,,,https://www.openstreetmap.org/node/5344191226
5402906822,Greenery Hostel,hostel,13.7568039,100.5267984,Bangkok,Thailand,,,,24/7,wlan,,,,https://www.openstreetmap.org/node/5402906822
5411865460,Tenten hostel,hostel,13.7407838,100.5240629,Bangkok,Thailand,,,,,,,,,https://www.openstreetmap.org/node/5411865460
5434554318,Maderla Guesthouse and Thai restaurant,guesthouse,13.7208698,100.547152,Bangkok,Thailand,"Soi Si Bamphen, Sathorn",02 287 1658,http://www.mader.la/,,wlan,,,,https://www.openstreetmap.org/node/5434554318
5448426446,Sleep Tight Hostel,hostel,13.7633111,100.4994449,Bangkok,Thailand,,,,,,,,,https://www.openstreetmap.org/node/5448426446
5455401623,Suan Parichat,apartment,13.7812768,100.5138308,Bangkok,Thailand,ถนนนครราชสีมา,+66 81 870 1976,https://the-parichat-apartment.business.site/,,wlan,,,,https://www.openstreetmap.org/node/5455401623
5457021221,หอพัก,hostel,13.6712473,100.6663634,Bangkok,Thailand,เฉลิมพระเกียรติ ร.9 ซอย 14,,,,,,,,https://www.openstreetmap.org/node/5457021221
5458124622,The Gallery Condominium,apartment,13.6573654,100.6042308,Bangkok,Thailand,,,,,,,,,https://www.openstreetmap.org/node/5458124622
5460423324,luck-yimm,hostel,13.7531493,100.4999007,Bangkok,Thailand,,,,,,,,,https://www.openstreetmap.org/node/5460423324
5463468022,Baan Bangkok (private Rooms),hostel,13.7622383,100.5019401,Bangkok,Thailand,,,,,wlan,,,,https://www.openstreetmap.org/node/5463468022
5466324421,บ้านบาส กทม,hostel,13.7906199,100.5854922,Bangkok,Thailand,ถนนสุทธิสารวินิจฉัย,,,,,,บาส,,https://www.openstreetmap.org/node/5466324421
5487055423,Khaosan Station,guesthouse,13.7618463,100.4989278,Bangkok,Thailand,ถนนพระสุเมรุ,,,24/7,wlan,,,,https://www.openstreetmap.org/node/5487055423
5490142522,Pura Vida Hostel Bangkok,hostel,13.7637157,100.4992531,Bangkok,Thailand,58 Samsen Rd. Khwaeng Ban Phan m,0813483158,http://www.puravidahostelbangkok.com,24/7,,,,,https://www.openstreetmap.org/node/5490142522
5510104323,Sloth Hos,hostel,13.9168342,100.5976318,Bangkok,Thailand,,,,,,,,,https://www.openstreetmap.org/node/5510104323
5510709881,Yaks,hostel,13.7676672,100.4852878,Bangkok,Thailand,,,,,,,,,https://www.openstreetmap.org/node/5510709881
5528225122,ราชการุญ,hostel,13.7666543,100.493376,Bangkok,Thailand,ซ.สมเด็จพระปิ่นเกล้า2 ถนนสมเด็จพระปิ่นเกล้า บางยี่ขัน บางพลัด กรุงเทพ,,,,,,,,https://www.openstreetmap.org/node/5528225122
5571315054,D HOUSE HOSTEL,hostel,13.9257525,100.5989458,Bangkok,Thailand,สรณคมน์,,,,,,,,https://www.openstreetmap.org/node/5571315054
5595440621,บ้านยุพา,hostel,13.7879325,100.7836066,Bangkok,Thailand,,,,,,,ยุพา ศรัทธาทิพย์,,https://www.openstreetmap.org/node/5595440621
5610728467,PanPan Hostel,hostel,13.7230749,100.5230041,Bangkok,Thailand,,,,,wlan,no,,,https://www.openstreetmap.org/node/5610728467
5610728468,COOPER Bangkok,hostel,13.7231557,100.5230033,Bangkok,Thailand,,,,,wlan,no,,,https://www.openstreetmap.org/node/5610728468
5611498326,เอส.อาร์.วี.แมนชั่น,apartment,13.8094718,100.5955231,Bangkok,Thailand,โชคชัย 4,,,,,,,,https://www.openstreetmap.org/node/5611498326
5620851121,เรือนไทยวิจิตรา,guesthouse,13.8222702,100.6245565,Bangkok,Thailand,,,,,,,,,https://www.openstreetmap.org/node/5620851121
5626524922,Connexion Condominium,apartment,13.8618991,100.5126604,Bangkok,Thailand,,,,,,,,,https://www.openstreetmap.org/node/5626524922
5638211323,บูมรำพา คอนโดเทล,apartment,13.7763372,100.5428792,Bangkok,Thailand,ถนนพหลโยธิน,,,,wlan,,,,https://www.openstreetmap.org/node/5638211323
5645771223,ບ້ານຈີມ,guesthouse,13.9492787,100.7424966,Bangkok,Thailand,,,,,,,,,https://www.openstreetmap.org/node/5645771223
5663256721,บ้านบางกอก,hostel,13.7634689,100.5002525,Bangkok,Thailand,Samsen Soi 4,"020458100, 0972415491",http://baanbangkokhostel.com,Mo-Su 07:00-00:00,wlan,,Bo,,https://www.openstreetmap.org/node/5663256721
5704404836,Rachan House,apartment,13.7750628,100.4893251,Bangkok,Thailand,,,,,wlan,,,,https://www.openstreetmap.org/node/5704404836
5725116021,Om Lis Home,apartment,13.7733311,100.5665455,Bangkok,Thailand,,,,,,,,,https://www.openstreetmap.org/node/5725116021
5725356422,Om Lis home,apartment,13.7722333,100.5662139,Bangkok,Thailand,,,,,,,,,https://www.openstreetmap.org/node/5725356422
5755600422,Rangnam,apartment,13.7578741,100.5407105,Bangkok,Thailand,,,,,,,,,https://www.openstreetmap.org/node/5755600422
5758166121,สตาร์แมนชั่น,hostel,13.8149387,100.6091716,Bangkok,Thailand,,,,,,,,,https://www.openstreetmap.org/node/5758166121
5778512453,Mama Guesthouse,hostel,13.7594425,100.4969517,Bangkok,Thailand,ถนนรามบุตรี,+66973177896,,24/7,wlan,,,,https://www.openstreetmap.org/node/5778512453
5794798354,dai ko ghar,guesthouse,13.5483256,100.7980364,Bangkok,Thailand,,,,,,,,,https://www.openstreetmap.org/node/5794798354
5800285853,3howw Hostel,hostel,13.7627294,100.5016532,Bangkok,Thailand,,,,,,,,,https://www.openstreetmap.org/node/5800285853
5801109553,ห้องพักรายวัน,guesthouse,13.9230698,100.5299972,Bangkok,Thailand,,,,,,,,,https://www.openstreetmap.org/node/5801109553
5808180053,หอพักT8,hostel,13.9106224,100.5541087,Bangkok,Thailand,,,,,,,,,https://www.openstreetmap.org/node/5808180053
5888497185,19a Bangkok Hostel,hostel,13.7756835,100.5434017,Bangkok,Thailand,,,,,wlan,,,,https://www.openstreetmap.org/node/5888497185
5930779695,Siam Golden Place,hostel,13.7301024,100.7335124,Bangkok,Thailand,MOTORWAY ROAD,,,,wlan,,+6621717499,,https://www.openstreetmap.org/node/5930779695
5988761403,Banankhon Hostel,hostel,13.7550188,100.5007686,Bangkok,Thailand,15 Dinso Road,00654898077,https://m.facebook.com/BaankhonBangkok,,,,,,https://www.openstreetmap.org/node/5988761403
5997039285,คาซิต้า คอนโด,apartment,13.6270223,100.6364527,Bangkok,Thailand,ถนนวัดหนามแดง,,,,,,,,https://www.openstreetmap.org/node/5997039285
6007414854,Hush Hush Cabina,hostel,13.680974,100.6058121,Bangkok,Thailand,Sukhumvit 66/1,+66970027460,https://www.airbnb.com/rooms/16787156,,,,,,https://www.openstreetmap.org/node/6007414854
6008057085,นิภา อพาร์ตเมนต์,apartment,13.7472218,100.6127201,Bangkok,Thailand,,,,,,,,,https://www.openstreetmap.org/node/6008057085
6008063085,ราม 12 คอนโดมิเนียม,apartment,13.7493539,100.6127098,Bangkok,Thailand,,,,,,,,,https://www.openstreetmap.org/node/6008063085
6009125185,Timber Hostel,hostel,13.7524401,100.5283125,Bangkok,Thailand,,,,,yes,,,,https://www.openstreetmap.org/node/6009125185
6019307287,ร่มโพธ,hostel,13.8560146,100.4846192,Bangkok,Thailand,ถนนนนทบุรี 1 (ทางขนาน),,,,,,,,https://www.openstreetmap.org/node/6019307287
6043933474,YHA Bangkok Airport,hostel,13.6980914,100.7347865,Bangkok,Thailand,,,,,yes,,,,https://www.openstreetmap.org/node/6043933474
6050719528,Baanbangkok Chinatown,hostel,13.7414762,100.5148299,Bangkok,Thailand,ตรอกพันธจิตต์ 2,,,,wlan,,,,https://www.openstreetmap.org/node/6050719528
6068692491,คุ้ม ชอบธรรม,apartment,13.6181351,100.595582,Bangkok,Thailand,ซอยนาคสุนทร 11,023846399,,,,,คุณชาตรี วุฒิมานพ,,https://www.openstreetmap.org/node/6068692491
6163747501,The Home BKK,hostel,13.7397086,100.5653441,Bangkok,Thailand,ซอยสุขุมวิท 23,,,Mo-Su 08:30-21:00,wlan,,,,https://www.openstreetmap.org/node/6163747501
6172166285,Yu ga Chan Guest House,guesthouse,13.6959943,100.5110243,Bangkok,Thailand,"Pradu 31 Alley, uni villa soi 9",,,,,,,,https://www.openstreetmap.org/node/6172166285
6185339786,ตึกพักชายที่ 13,hostel,13.8486982,100.5680981,Bangkok,Thailand,,,,,,limited,,,https://www.openstreetmap.org/node/6185339786
6204836901,A.M. Mansion,apartment,13.7266314,100.4990185,Bangkok,Thailand,ซอย วิเศษสรรค์ เจริญรัถ,+6624380110,,,,,,,https://www.openstreetmap.org/node/6204836901
6260225953,Mellow Fellow Hostel,hostel,13.7512844,100.528553,Bangkok,Thailand,,,,,,,,,https://www.openstreetmap.org/node/6260225953
6267689554,Bed Station Hostel,hostel,13.7604201,100.4980904,Bangkok,Thailand,Tani Road,,,,,,,,https://www.openstreetmap.org/node/6267689554
6269186031,Café de Baan Raow,guesthouse,13.7662927,100.4994965,Bangkok,Thailand,Soi Samsen 5,,,,,,,,https://www.openstreetmap.org/node/6269186031
6300429086,พี่โรงก็เล่น,apartment,13.7323306,100.572025,Bangkok,Thailand,สุขุมวิท ซอย 41,,http://www.phiromgarden.com,,,,,,https://www.openstreetmap.org/node/6300429086
6308020698,Townhouse Bangkok,guesthouse,13.6827156,100.616283,Bangkok,Thailand,,,,,,,,,https://www.openstreetmap.org/node/6308020698
6315288803,9 place,apartment,13.7980955,100.3279801,Bangkok,Thailand,,,,,,,,,https://www.openstreetmap.org/node/6315288803
6342428485,SleepWith “ME”,hostel,13.7624519,100.503592,Bangkok,Thailand,ถนนประชาธิปไตย,+66 92 724 6963,,,,,,,https://www.openstreetmap.org/node/6342428485
6372366178,Rio Monte,apartment,13.6965404,100.5111803,Bangkok,Thailand,,"+6622921234, +6622920404",https://www.riomonte.com/,,,,,,https://www.openstreetmap.org/node/6372366178
6430215185,ลุก​ โฮเทล​,hostel,13.7397976,100.5079092,Bangkok,Thailand,ซอยวานิช 1,0948933561,,24/7,wlan,,Earf Tuanwachat,,https://www.openstreetmap.org/node/6430215185
6438560685,พีเค,apartment,13.780376,100.5826949,Bangkok,Thailand,,,,,,,,,https://www.openstreetmap.org/node/6438560685
6471827585,Baan Bangkok Home,hostel,13.7622232,100.5021207,Bangkok,Thailand,,,,,,,,,https://www.openstreetmap.org/node/6471827585
6491659785,ศรีอรุณเร้นซิเด้นซ์,apartment,13.7403613,100.4840543,Bangkok,Thailand,ถนนอิสรภาพ,,,,,,,,https://www.openstreetmap.org/node/6491659785
6533757292,The Trust Condo,apartment,13.6203489,100.5894869,Bangkok,Thailand,,,,,,,,,https://www.openstreetmap.org/node/6533757292
6603635385,Rest Ari Hostel,hostel,13.783713,100.5436538,Bangkok,Thailand,,,,,,,,,https://www.openstreetmap.org/node/6603635385
6734863523,บ้านกันต์รัชต์​ (Baan Kanthut),apartment,13.7267167,100.4984434,Bangkok,Thailand,,,,,,,,,https://www.openstreetmap.org/node/6734863523
6745303434,สำนักงานขาย เดอะเบลล่าคอนโด พระราม 2,apartment,13.663946,100.4296107,Bangkok,Thailand,ถนนบางขุนเทียน,,,,yes,,,,https://www.openstreetmap.org/node/6745303434
6805673110,Makkasan Happy Home,hostel,13.7508779,100.5596902,Bangkok,Thailand,Petchaburi Road,+66 63 493 5391,,,,,,,https://www.openstreetmap.org/node/6805673110
6825175010,TANGO Vibrant Living Place,apartment,13.7538231,100.5427045,Bangkok,Thailand,Soi Ratchaprarop 8,,https://tangobkk.com/,,wlan,,,,https://www.openstreetmap.org/node/6825175010
6923883404,Peace Factory Hostel,hostel,13.7477052,100.5082082,Bangkok,Thailand,,,,,,,,,https://www.openstreetmap.org/node/6923883404
6940309086,Rest is More,hostel,13.751988,100.5074609,Bangkok,Thailand,ถนนบำรุงเมือง,,,,,,,,https://www.openstreetmap.org/node/6940309086
6952878385,Glass Lodge,hostel,13.7227703,100.5521766,Bangkok,Thailand,ถนนพระรามที่ 4,0846719661,,,wlan,,,,https://www.openstreetmap.org/node/6952878385
6982511699,Star Amir,guesthouse,13.7612429,100.5039456,Bangkok,Thailand,Trok Ban Chang Lo,,,,,,,,https://www.openstreetmap.org/node/6982511699
6997798292,Long Klong Homestay 63 Moo 5 Bangkrui,hostel,13.8483819,100.4237893,Bangkok,Thailand,"Long Klong Homestay 63 Moo 5 Bangkrui, Srainoi road, T.Bang Lane, A.Bang Yai, Nonthaburi, Thailand","+66-616456229, +66-628293693, +66-616456229",,,,,,,https://www.openstreetmap.org/node/6997798292
7026591487,หลบศึกโฮสเทล,hostel,13.760756,100.5022145,Bangkok,Thailand,ถนนประชาธิปไตย,021154295,https://www.booking.com/hotel/th/lobsuek-hostel.html?lang=xu,24/7,wlan,,Jiramoth thanapanaphruekkul,,https://www.openstreetmap.org/node/7026591487
7035758185,Hanu Hostel Bangkok,hostel,13.7563244,100.4981679,Bangkok,Thailand,,,,,wlan,,,,https://www.openstreetmap.org/node/7035758185
7041603070,Pop Art Hostel,hostel,13.7417007,100.5143148,Bangkok,Thailand,Soi Phantha Chit 2,+66826604290,https://www.facebook.com/PopArtHostelChinatown/,,wlan,,,,https://www.openstreetmap.org/node/7041603070
7068187374,Bed Station Hostel Khaosan,hostel,13.7599037,100.4980194,Bangkok,Thailand,,,,,,,,,https://www.openstreetmap.org/node/7068187374
7085134981,ตึกหอพักชาย 2,hostel,13.848693,100.5678446,Bangkok,Thailand,,,,,,limited,,,https://www.openstreetmap.org/node/7085134981
7135581850,Visit House,hostel,13.7560837,100.5099184,Bangkok,Thailand,lan Luang soi 4,,,,,,,,https://www.openstreetmap.org/node/7135581850
7172114487,แฮปปี้สเตชั่น,hostel,13.7381732,100.5175833,Bangkok,Thailand,ถนนพระรามที่ 4,+66 85 800 6900,https://www.happystationbangkok.com,,wlan,,,,https://www.openstreetmap.org/node/7172114487
7200786887,Baan kachipan,guesthouse,13.7555745,100.5001447,Bangkok,Thailand,"31 Trok Silp, Dinso Road, Bawon Niwet Phra Nakhon, KhaoSan",+66 91 9821000,,,wlan,,,,https://www.openstreetmap.org/node/7200786887
7209088266,FoRest bed&brunch,hostel,13.7093707,100.5981907,Bangkok,Thailand,,,,,,,,,https://www.openstreetmap.org/node/7209088266
7213883237,Prasuri,guesthouse,13.7580301,100.5025882,Bangkok,Thailand,,022801428,prasuri_gh_bkk@hotmail.com,,,,,,https://www.openstreetmap.org/node/7213883237
7273399570,BB house,guesthouse,13.7599666,100.4938621,Bangkok,Thailand,,,,,,,,,https://www.openstreetmap.org/node/7273399570
7307707845,Sabye Club Hostel,hostel,13.7624417,100.5022003,Bangkok,Thailand,,,,,,,,,https://www.openstreetmap.org/node/7307707845
7325758685,Meet Young Hostel,hostel,13.7223654,100.5360717,Bangkok,Thailand,,,,Mo-Su 07:00-22:00,wlan,,,,https://www.openstreetmap.org/node/7325758685
7449298946,สุวัธชัย การ์เด้น,hostel,13.6047941,100.5973918,Bangkok,Thailand,ถนนสุขุมวิท ซอย 27/1,,,,wlan,,,,https://www.openstreetmap.org/node/7449298946
7462653525,Lida Hostel,hostel,13.7630518,100.5029914,Bangkok,Thailand,,,,,,,,,https://www.openstreetmap.org/node/7462653525
7487609185,สิริพัศอพาร์ทเม้นทร์,apartment,13.8001464,100.3150419,Bangkok,Thailand,ซ. สหพร ค. ศาลายา,,,,wlan,,,,https://www.openstreetmap.org/node/7487609185
7660084379,ณายเพลส,apartment,13.713722,100.5816198,Bangkok,Thailand,,,,,,,,,https://www.openstreetmap.org/node/7660084379
7896256785,คมพชร แมนชั่น,apartment,13.7713,100.6199073,Bangkok,Thailand,ซอยรามคำแหง 53,0814447070,,,,,,,https://www.openstreetmap.org/node/7896256785
7972689685,ยูดีไลท์ 2 แอท บางซื่อ สเตชั่น,apartment,13.8190191,100.5357462,Bangkok,Thailand,ถนนประชาชื่น,02 148 0600,,Mo-Sa 08:00-18:00,,,,,https://www.openstreetmap.org/node/7972689685
7996298931,Unico Hostel,hostel,13.6906697,100.6154139,Bangkok,Thailand,,,,,,,,,https://www.openstreetmap.org/node/7996298931
7998791285,คลิก 34 ลิฟวิ่ง,apartment,13.6886785,100.5295004,Bangkok,Thailand,ซอย​สาธุประดิษฐ์​ 34,022481230,https://www.click-34living.com/,Mo-Su 09:00-18:00,wlan,,,,https://www.openstreetmap.org/node/7998791285
8419731117,หมู่บ้าน โกลเด้นรีเจ้นท์,apartment,13.7005831,100.4401205,Bangkok,Thailand,ถนนกัลปพฤกษ์,,,,,,,,https://www.openstreetmap.org/node/8419731117
8794092435,Janfong 2,apartment,13.6476591,100.6737108,Bangkok,Thailand,,,,,,,,,https://www.openstreetmap.org/node/8794092435
9143408913,Plum condo Chokchai4 (พลัมคอนโด โชคชัย4),apartment,13.81288,100.5961492,Bangkok,Thailand,ถนนโชคชัย 4,,,,yes,,,,https://www.openstreetmap.org/node/9143408913
9143408914,Plum condo Chokchai4(พลัมคอนโดโชคชัย4),apartment,13.8127983,100.5961601,Bangkok,Thailand,ถนนโชคชัย 4,,,,yes,,,,https://www.openstreetmap.org/node/9143408914
9394462017,Beautiful Souls,hostel,13.7211238,100.4894466,Bangkok,Thailand,,,,,wlan,,,,https://www.openstreetmap.org/node/9394462017
9620764923,NK Guest House,guesthouse,13.736695,100.5535763,Bangkok,Thailand,,,,,,,,,https://www.openstreetmap.org/node/9620764923
9627926743,HI Residence,apartment,13.7563407,100.5586822,Bangkok,Thailand,,,,,,,,,https://www.openstreetmap.org/node/9627926743
9739291651,Silom Space Hostel,hostel,13.7292496,100.5354293,Bangkok,Thailand,,,https://www.facebook.com/SilomSpacehostel/,,yes,,,,https://www.openstreetmap.org/node/9739291651
9739291656,Ekanek Hostel,hostel,13.7297269,100.5321179,Bangkok,Thailand,,,https://ekanekhostel.business.site/,,yes,,,,https://www.openstreetmap.org/node/9739291656
9742503317,เดอะคิทท์ พลัส นวมินทร์,hostel,13.8350828,100.6570902,Bangkok,Thailand,ซอยนวมินทร์ 163,,,,,,,,https://www.openstreetmap.org/node/9742503317
9751068856,S&P Court,apartment,13.6697801,100.6157445,Bangkok,Thailand,Bangna-Trat 6,,,,,,,,https://www.openstreetmap.org/node/9751068856
9751068859,SP Home,apartment,13.668081,100.6152288,Bangkok,Thailand,Bangna-Trat 6,,,,,,,,https://www.openstreetmap.org/node/9751068859
9753371018,SP Mansion,apartment,13.6220081,100.7183707,Bangkok,Thailand,,,,,,,,,https://www.openstreetmap.org/node/9753371018
9753483812,S&P Court Samrong,apartment,13.6410947,100.5928409,Bangkok,Thailand,,,,,,,,,https://www.openstreetmap.org/node/9753483812
9753518235,Baan Kingkaew,apartment,13.6505676,100.7162979,Bangkok,Thailand,,,,,,,,,https://www.openstreetmap.org/node/9753518235
9778495025,Dcondo Onnut-Rama9,apartment,13.7304708,100.6994899,Bangkok,Thailand,,,,,,,,,https://www.openstreetmap.org/node/9778495025
9874611617,เอ. เอฟ. แมนชั่น,apartment,13.7316663,100.6381671,Bangkok,Thailand,ซอยพัฒนาการ 54,0899660817,,,,,,,https://www.openstreetmap.org/node/9874611617
9943102427,หอพักสตรี บ้านสราญสุข,apartment,13.8228874,100.5157597,Bangkok,Thailand,,,,,,,,,https://www.openstreetmap.org/node/9943102427
9960601917,Everyday Bangkok Hostel,hostel,13.731885,100.5269587,Bangkok,Thailand,ถนนทรัพย์,+6626370009,https://www.everydaybangkokhostel.com/,,wlan,,,,https://www.openstreetmap.org/node/9960601917
10110576662,The Yard,hostel,13.7766962,100.5417262,Bangkok,Thailand,Phahon Yothin 5,,,,,,,,https://www.openstreetmap.org/node/10110576662
10230322017,Shanti Lodge,hostel,13.771965,100.5036106,Bangkok,Thailand,,,,,,,,,https://www.openstreetmap.org/node/10230322017
10575864894,CU Hangout Space,coworking,13.7420256,100.5272742,Bangkok,Thailand,,,,Mo-Su 09:00-22:00,yes,,,,https://www.openstreetmap.org/node/10575864894
10575973941,Khao San Social Capsule,hostel,13.7601898,100.4986884,Bangkok,Thailand,,,,,,,,,https://www.openstreetmap.org/node/10575973941
10583393215,Audrey's Residence,guesthouse,13.9210401,100.5378643,Bangkok,Thailand,เมืองทองธานีโครงการ 2 ซอย 10,,,,wlan,,,,https://www.openstreetmap.org/node/10583393215
10650433505,Bānsū,hostel,13.7503324,100.5282077,Bangkok,Thailand,,+66 (63) 646-6242,,,wlan,,,,https://www.openstreetmap.org/node/10650433505
10660732482,บ้านเพลงกลางสวน,apartment,13.753824,100.440676,Bangkok,Thailand,,+66 81 926 8696,,,,,,,https://www.openstreetmap.org/node/10660732482
10696114205,Pillow & Bread,hostel,13.7894999,100.5529677,Bangkok,Thailand,ซอยอินทามระ 5,,,,,,,,https://www.openstreetmap.org/node/10696114205
10772641961,สโมสรธรรมทาน,coworking,13.8170826,100.5561979,Bangkok,Thailand,,,,We-Su 09:00-17:00; Mo-Tu closed,,limited,Buddhadasa Indapanno Archives,,https://www.openstreetmap.org/node/10772641961
10775625919,The Teak,apartment,13.7406687,100.5735142,Bangkok,Thailand,,,,,,,,,https://www.openstreetmap.org/node/10775625919
10784750280,Building E,apartment,13.8653032,100.5033739,Bangkok,Thailand,ถนนรัตนาธิเบศร์,,,,,,Lumpini Park Rattathibeth,,https://www.openstreetmap.org/node/10784750280
11012982036,ซันฟลาวเวอร์ เพลส,apartment,13.7281512,100.5297684,Bangkok,Thailand,,,,,,,,,https://www.openstreetmap.org/node/11012982036
11012982038,กินนอน โฮสท์เทล,hostel,13.728265,100.5297106,Bangkok,Thailand,,+66 86 348 5812,https://www.kinnonhostel.com,,,,,,https://www.openstreetmap.org/node/11012982038
11012982041,Aeon House,apartment,13.7282704,100.5298643,Bangkok,Thailand,,,,,,,,,https://www.openstreetmap.org/node/11012982041
11042725123,The Backpack Hostel,hostel,13.7295132,100.5197193,Bangkok,Thailand,,,,,,,,,https://www.openstreetmap.org/node/11042725123
11047849344,The Chatbox Silom Hostel,hostel,13.7279369,100.5266676,Bangkok,Thailand,,,,,,,,,https://www.openstreetmap.org/node/11047849344
11059710905,Sloth Hostel Khaosan,hostel,13.7611349,100.4979024,Bangkok,Thailand,ถนนไกรสีห์,,,24/7,wlan,,,,https://www.openstreetmap.org/node/11059710905
11071121446,NK Guesthouse (II),guesthouse,13.7364794,100.5533876,Bangkok,Thailand,77/6-7 Sukhumvit Soi 4 (Nana Tai),,,,,,,,https://www.openstreetmap.org/node/11071121446
11074685200,Azure Hostel,hostel,13.7576929,100.5047125,Bangkok,Thailand,,,,,,,,,https://www.openstreetmap.org/node/11074685200
11080260527,W3: Wake/Walk/Work,hostel,13.7282676,100.527509,Bangkok,Thailand,,,,,,,,,https://www.openstreetmap.org/node/11080260527
11102108091,เล็กกี้ ฮัท,apartment,13.7304749,100.5244176,Bangkok,Thailand,,,,,,,,,https://www.openstreetmap.org/node/11102108091
11115619749,Mangkon Hostel,hostel,13.7390452,100.5059446,Bangkok,Thailand,,,,,wlan,no,,,https://www.openstreetmap.org/node/11115619749
11147936605,สามย่าน บ้านสบาย ตึก,apartment,13.7317014,100.528162,Bangkok,Thailand,,,,,,,,,https://www.openstreetmap.org/node/11147936605
11147936633,สามย่าน บ้านสบาย ตึก B,apartment,13.7313406,100.5285362,Bangkok,Thailand,ซอยหลังวัดหัวลำโพง,,,,,,,,https://www.openstreetmap.org/node/11147936633
11147936643,สามย่าน บ้านสบาย ตึก A,apartment,13.7312629,100.5284973,Bangkok,Thailand,,,,,,,,,https://www.openstreetmap.org/node/11147936643
11161054044,บ้านอัศวา,apartment,13.7292304,100.5251793,Bangkok,Thailand,ซอยสันติภาพ,,,,,,,,https://www.openstreetmap.org/node/11161054044
11178983386,The Furano House,apartment,13.7306525,100.5282884,Bangkok,Thailand,ซอยสุขสันต์,,,,,,,,https://www.openstreetmap.org/node/11178983386
11179012916,บ้านหงสกุล,apartment,13.7310456,100.5304456,Bangkok,Thailand,,,,,,,,,https://www.openstreetmap.org/node/11179012916
11194223764,HOFT hostel,hostel,13.7274052,100.524292,Bangkok,Thailand,,+660811165407,,,wlan,no,,,https://www.openstreetmap.org/node/11194223764
11212240050,เดอะ กรีนเนอร์รี่ 7,apartment,13.7383927,100.3353835,Bangkok,Thailand,,,,,,,,,https://www.openstreetmap.org/node/11212240050
11245404668,MANSION 65,apartment,13.8573136,100.6478368,Bangkok,Thailand,,,,,,,,,https://www.openstreetmap.org/node/11245404668
11309055169,Liberta Hostel,hostel,13.7616611,100.4974886,Bangkok,Thailand,,,,,,,,,https://www.openstreetmap.org/node/11309055169
11353615619,Circle 31,apartment,13.7390325,100.5662737,Bangkok,Thailand,,,,,,,,,https://www.openstreetmap.org/node/11353615619
11357553849,Nina Guest House,guesthouse,13.7586907,100.499716,Bangkok,Thailand,ตรอกบวรรังษี,,,,wlan,,,,https://www.openstreetmap.org/node/11357553849
11357553850,New Central Guest House,guesthouse,13.7587062,100.4995992,Bangkok,Thailand,ตรอกบวรรังษี,,,,wlan,no,,,https://www.openstreetmap.org/node/11357553850
11359452427,Casa Luna,hostel,13.7563502,100.5273641,Bangkok,Thailand,,,,,,,,,https://www.openstreetmap.org/node/11359452427
11359506069,x9 Hostel,hostel,13.7547772,100.5660518,Bangkok,Thailand,Soi Lert keaw 2,,,,,,,,https://www.openstreetmap.org/node/11359506069
11380702944,Siam Stadium Hostel,hostel,13.7470762,100.5246558,Bangkok,Thailand,,,,,,,,,https://www.openstreetmap.org/node/11380702944
11620327528,Hide Bangkok,hostel,13.706561,100.5963747,Bangkok,Thailand,,,,,,,,,https://www.openstreetmap.org/node/11620327528
11640115089,OYO VM1 Hostel,hostel,13.7689255,100.5394012,Bangkok,Thailand,,+66 024304464,,,,,,,https://www.openstreetmap.org/node/11640115089
11640115614,Time Sabai 32,hostel,13.7451326,100.5155131,Bangkok,Thailand,Mittraphan Rd,+66 020159242,https://timesabai32.zoombookdirect.com/,,,,,,https://www.openstreetmap.org/node/11640115614
11640428469,Urban Jungle Hostel,hostel,13.7320488,100.5283091,Bangkok,Thailand,,,https://www.urbanjunglehostels.com/,,wlan,,,,https://www.openstreetmap.org/node/11640428469
11906099753,Mom’s,guesthouse,13.790213,100.5446893,Bangkok,Thailand,,+66 (80) 597-5764,,10:00-23:00,,,,,https://www.openstreetmap.org/node/11906099753
11953630969,Chill Inn Bangkok,hostel,13.7198138,100.5852762,Bangkok,Thailand,ถนนสุขุมวิท,,https://www.chillinnthailand.com/,,wlan,,,,https://www.openstreetmap.org/node/11953630969
11958472298,Buddy Lodge,hostel,13.7583158,100.4987237,Bangkok,Thailand,,,,,,,,,https://www.openstreetmap.org/node/11958472298
12020481778,Humz Canal Stay,guesthouse,13.8281192,100.4397345,Bangkok,Thailand,,,https://www.facebook.com/humzcanalstay/,,,,,,https://www.openstreetmap.org/node/12020481778
12114182101,Ti Thong Hostel,hostel,13.7487428,100.4991489,Bangkok,Thailand,,,,,wlan,,,,https://www.openstreetmap.org/node/12114182101
12144942001,Motuga Hostel,hostel,13.7355158,100.5126009,Bangkok,Thailand,,,,,,,,,https://www.openstreetmap.org/node/12144942001
12164752024,เอี่ยมวันแมนชั่น,apartment,13.7383725,100.6885534,Bangkok,Thailand,กรุงเทพกรีฑา,0963061169,,,,,,,https://www.openstreetmap.org/node/12164752024
12189243501,Homey hostel,hostel,13.760341,100.4937728,Bangkok,Thailand,,+66972067191;0819276188,,,,,,,https://www.openstreetmap.org/node/12189243501
12200929201,PLOY Hostel,hostel,13.7627086,100.5017003,Bangkok,Thailand,,,,,,,,,https://www.openstreetmap.org/node/12200929201
12215438301,Mind Day Hostel,hostel,13.7617705,100.4980259,Bangkok,Thailand,ถนนจักรพงษ์,,,,wlan,,,,https://www.openstreetmap.org/node/12215438301
12288430801,เวหา โฮสเทล,hostel,13.8921115,100.5806999,Bangkok,Thailand,แจ้งวัฒนะ 10 แยก 9-3,+66 61 051 5959,https://wayhahostel.com/,24/7,wlan,,,,https://www.openstreetmap.org/node/12288430801
12317273101,Yowgo,hostel,13.7070558,100.6078642,Bangkok,Thailand,,,,,,,,,https://www.openstreetmap.org/node/12317273101
12317273102,COZ Ratchathewi,hostel,13.7548144,100.5279085,Bangkok,Thailand,ถนนเพชรบุรี,,,,,,,,https://www.openstreetmap.org/node/12317273102
12339938001,420 House- up to 10 guests in central Bangkok,guesthouse,13.7380755,100.6313175,Bangkok,Thailand,Pattanakarn Road,,,,,,,,https://www.openstreetmap.org/node/12339938001
12344386278,The Marble Hostel,hostel,13.7293555,100.5322615,Bangkok,Thailand,,,,,wlan,,,,https://www.openstreetmap.org/node/12344386278
12406040901,บ้านวัวลำพอง,guesthouse,13.7389261,100.517286,Bangkok,Thailand,ถนนรองเมือง,,https://baan-wualamphong.hibangkokhotels.com/fr/,,,,,,https://www.openstreetmap.org/node/12406040901
12409927201,Pier 808,guesthouse,13.7389805,100.5041866,Bangkok,Thailand,ถนนทรงวาด,,,,wlan,,,,https://www.openstreetmap.org/node/12409927201
12440856793,Movylodge Hostel,hostel,13.7531091,100.5325983,Bangkok,Thailand,Phetchaburi Road,0977454545,https://www.movylodge.com/,Mo-Su 09:00-21:00,wlan,no,,,https://www.openstreetmap.org/node/12440856793
12444384119,บ้านสวนรัชดา เรสซิเดนท์,apartment,13.7885891,100.5911488,Bangkok,Thailand,ซอยลาดพร้าว 64 แยก 4,,,,,,,,https://www.openstreetmap.org/node/12444384119
12452854735,Panda Lodge Home Stay,guesthouse,13.763171,100.4999584,Bangkok,Thailand,,,,,wlan,no,,,https://www.openstreetmap.org/node/12452854735
12462447401,Room 22,hostel,13.7426456,100.5136828,Bangkok,Thailand,ถนนมิตรพันธ์,,,,,,,,https://www.openstreetmap.org/node/12462447401
12487978101,MissZhao,hostel,13.7629581,100.5006568,Bangkok,Thailand,,,,,wlan,,,,https://www.openstreetmap.org/node/12487978101
12487979201,I waiting for you,hostel,13.7631585,100.5008114,Bangkok,Thailand,,,,,wlan,,,,https://www.openstreetmap.org/node/12487979201
12495527301,ABSTheCafe hostel,hostel,13.7281415,100.4519202,Bangkok,Thailand,11 ซอยราชพฤษษ์ 5,+66 65 932 1108,,,wlan,,,,https://www.openstreetmap.org/node/12495527301
12507145708,Saffron Hill Bangkok,guesthouse,13.6937005,100.6430908,Bangkok,Thailand,ซอยศรีนครินทร์ 40,+66 88 8936333;+66 99 052 9292,,24/7,wlan,,,,https://www.openstreetmap.org/node/12507145708
12509191854,Diff Hostel,hostel,13.7543814,100.5311933,Bangkok,Thailand,,,,,,,,,https://www.openstreetmap.org/node/12509191854
12539002787,The Cube Hostel,hostel,13.7278505,100.5365075,Bangkok,Thailand,,,,,,,,,https://www.openstreetmap.org/node/12539002787
12541002601,Happy hope,hostel,13.763915,100.5007682,Bangkok,Thailand,,,,,,,,,https://www.openstreetmap.org/node/12541002601
12618636808,Aesthera Home,guesthouse,13.7431823,100.5053068,Bangkok,Thailand,,,,,,,,,https://www.openstreetmap.org/node/12618636808
12618636809,LillaLily House,guesthouse,13.7431715,100.5052962,Bangkok,Thailand,,,,,,,,,https://www.openstreetmap.org/node/12618636809
12618636817,Ma's House - Homestay by Armie,guesthouse,13.7434465,100.504755,Bangkok,Thailand,,,,,,,,,https://www.openstreetmap.org/node/12618636817
12640457601,Green Garden Hostel,hostel,13.7624884,100.5015578,Bangkok,Thailand,,,,,,,,,https://www.openstreetmap.org/node/12640457601
12652582201,Panda,hostel,13.7631446,100.4999353,Bangkok,Thailand,,,,,,,,,https://www.openstreetmap.org/node/12652582201
12692828901,ECO House,hostel,13.7547462,100.5207126,Bangkok,Thailand,,,,,,,,,https://www.openstreetmap.org/node/12692828901
12722485102,Vibes Hostel,hostel,13.7402069,100.5562308,Bangkok,Thailand,ซอยสุขุมวิท 11,,,24/7,,,,,https://www.openstreetmap.org/node/12722485102
12772546801,Chubby 9,guesthouse,13.7863834,100.497671,Bangkok,Thailand,,,,,,,,,https://www.openstreetmap.org/node/12772546801
12841588449,ดีคอนโด คาล์ม รามคำแหง 40,apartment,13.755857,100.6393692,Bangkok,Thailand,ซอยรามคำแหง 40,,https://www.sansiri.com/condominium/dcondo-calm/th/,,yes,,,,https://www.openstreetmap.org/node/12841588449
12874121292,Shade House,guesthouse,13.7647196,100.4981364,Bangkok,Thailand,,,,,,,,,https://www.openstreetmap.org/node/12874121292
12944660259,Retro Retreat Chinatown,guesthouse,13.7430573,100.5047516,Bangkok,Thailand,,,,,,,,,https://www.openstreetmap.org/node/12944660259
12944660260,Arun Sawad,guesthouse,13.7434709,100.5047776,Bangkok,Thailand,,,,,,,,,https://www.openstreetmap.org/node/12944660260
12944660261,SuXiang 019,guesthouse,13.743499,100.5049134,Bangkok,Thailand,,,,,,,,,https://www.openstreetmap.org/node/12944660261
12944660262,SuXiang 154,guesthouse,13.7432242,100.5045886,Bangkok,Thailand,,,,,,,,,https://www.openstreetmap.org/node/12944660262
12944660263,SuXiang 168,guesthouse,13.7431278,100.5046567,Bangkok,Thailand,,,,,,,,,https://www.openstreetmap.org/node/12944660263
12944660264,Soho House Chinatown,guesthouse,13.7431676,100.5049283,Bangkok,Thailand,,,,,,,,,https://www.openstreetmap.org/node/12944660264
12944660265,Puscha's Place,guesthouse,13.742835,100.5050211,Bangkok,Thailand,,,,,,,,,https://www.openstreetmap.org/node/12944660265
12944660266,Matta's Place,guesthouse,13.7431896,100.5050368,Bangkok,Thailand,,,,,,,,,https://www.openstreetmap.org/node/12944660266
12944660267,Giffy's Place,guesthouse,13.7430511,100.5047602,Bangkok,Thailand,,,,,,,,,https://www.openstreetmap.org/node/12944660267
12944660268,May's Place,guesthouse,13.7431345,100.5052656,Bangkok,Thailand,,,,,,,,,https://www.openstreetmap.org/node/12944660268
12944660269,Nivas Wanit,guesthouse,13.7431192,100.5046731,Bangkok,Thailand,,,,,,,,,https://www.openstreetmap.org/node/12944660269
12944660270,Nivas Wanit,guesthouse,13.7430581,100.5052128,Bangkok,Thailand,,,,,,,,,https://www.openstreetmap.org/node/12944660270
12944660271,Kraft House,guesthouse,13.743308,100.504659,Bangkok,Thailand,,,,,,,,,https://www.openstreetmap.org/node/12944660271
12960859201,ณ เอกมัย เรสซิเด้นท์,guesthouse,13.7362375,100.5887978,Bangkok,Thailand,,,,,wlan,,,,https://www.openstreetmap.org/node/12960859201
13058033201,อัมสเตอร์ดัมด์,hostel,13.6993091,100.6073521,Bangkok,Thailand,ซอยสุขุมวิท 95,+6682-738-1283,,Mo-Su 10:00-20:00,wlan,,,,https://www.openstreetmap.org/node/13058033201
13161373401,Dado9home,guesthouse,13.7279841,100.5751241,Bangkok,Thailand,,+66 642055384;+66 900946932,,,wlan,,,,https://www.openstreetmap.org/node/13161373401
13164366401,silpasala stayz,hostel,13.7359126,100.6402606,Bangkok,Thailand,ถนนพัฒนาการ,+66 81 512 6396,,Mo-Su 11:00-19:00,wlan,,,,https://www.openstreetmap.org/node/13164366401
13166922801,Tuk Tuk Hostel,hostel,13.7722641,100.4847149,Bangkok,Thailand,,,,,,,,,https://www.openstreetmap.org/node/13166922801
13183298201,Yotaka The Hostel,hostel,13.7711531,100.6217446,Bangkok,Thailand,,,,,wlan,,,,https://www.openstreetmap.org/node/13183298201
13242974948,Quiet Queen Hotel,hostel,13.7274063,100.5371036,Bangkok,Thailand,,,,,,,,,https://www.openstreetmap.org/node/13242974948
13280159662,Sun house x Santo house,guesthouse,13.7534594,100.4972602,Bangkok,Thailand,Buranasat road,0962719910,,,,,,,https://www.openstreetmap.org/node/13280159662
13300008960,u-need Guesthouse 95,guesthouse,13.7650309,100.4976377,Bangkok,Thailand,,,,,,,,,https://www.openstreetmap.org/node/13300008960
13310185901,Chest's place,hostel,13.7558342,100.5004847,Bangkok,Thailand,Trok Silp,,,,wlan,,,,https://www.openstreetmap.org/node/13310185901
13340473101,Kinboshi Hostel Silom,hostel,13.7213529,100.5234919,Bangkok,Thailand,ถนนปั้น,,,,,,,,https://www.openstreetmap.org/node/13340473101
13356239580,Silom Guesthouse,hostel,13.7250682,100.5334914,Bangkok,Thailand,,,,,wlan,no,,,https://www.openstreetmap.org/node/13356239580
13358046544,The Hidden Khaosan X3,guesthouse,13.7585557,100.4997417,Bangkok,Thailand,,,,,wlan,no,,,https://www.openstreetmap.org/node/13358046544
13361400701,BS Hostel,hostel,13.9160581,100.5953561,Bangkok,Thailand,,+66 92 759 2936;+66 83 492 2900,,Mo-Su 14:00-21:30,wlan,,,,https://www.openstreetmap.org/node/13361400701
13378790620,Mahannop,hostel,13.753639,100.4987986,Bangkok,Thailand,ถนนมหรรณพ,,,,wlan,no,,,https://www.openstreetmap.org/node/13378790620
13392316701,เจบีโฮม,guesthouse,13.7772643,100.533243,Bangkok,Thailand,ซอยศาสนา 2,+66 95 624 2999,,,,,,,https://www.openstreetmap.org/node/13392316701
13399147299,Chan Cha La 99,hostel,13.6966649,100.6064635,Bangkok,Thailand,,,,,,,,,https://www.openstreetmap.org/node/13399147299
13426145101,Siamese Ratchakru,apartment,13.7758694,100.5430042,Bangkok,Thailand,ถนนพหลโยธิน,,,,,,,,https://www.openstreetmap.org/node/13426145101
13430204310,Big Zen Condotel,apartment,13.8588055,100.5399075,Bangkok,Thailand,,+66 99 123 8185; +66 29526500,,24/7,,,,,https://www.openstreetmap.org/node/13430204310
13442913041,Groundhouse,guesthouse,13.761392,100.4975901,Bangkok,Thailand,ถนนจักรพงษ์,+66993306213,https://sites.google.com/view/groundhouse-bangkok/,,yes,,,,https://www.openstreetmap.org/node/13442913041
13451663501,Haven 35,apartment,13.7656517,100.5444893,Bangkok,Thailand,ซอยราชวิถี 2,,,,,,,,https://www.openstreetmap.org/node/13451663501
13461803501,Residence nine,apartment,13.7484886,100.6371422,Bangkok,Thailand,ซอยพระราม 9 ซอย 59,,,24/7,,,,,https://www.openstreetmap.org/node/13461803501
13509452186,Bangna Residence,apartment,13.6751704,100.5993335,Bangkok,Thailand,Sanpawut Road,,,,,,,,https://www.openstreetmap.org/node/13509452186
13526158701,Tian Tian Hostel,hostel,13.7397476,100.5096487,Bangkok,Thailand,,,,,,,,,https://www.openstreetmap.org/node/13526158701
13533573302,Let's Zzz Bangkok,hostel,13.7648685,100.4972938,Bangkok,Thailand,ซอยสามเสน 1,,,,,,,,https://www.openstreetmap.org/node/13533573302
13533870201,Many Trees,guesthouse,13.7190859,100.5350939,Bangkok,Thailand,ซอยสวนพลู 1,,,,,,,,https://www.openstreetmap.org/node/13533870201
13677201840,BRB Hostel,hostel,13.7266876,100.5311451,Bangkok,Thailand,,,,,,,,,https://www.openstreetmap.org/node/13677201840
13720964301,Supalai Vista Tiwanon,hostel,13.8418125,100.5115625,Bangkok,Thailand,ถนนกรุงเทพ-นนทบุรี,,,,,,,,https://www.openstreetmap.org/node/13720964301
13726864423,VX The Fifty,guesthouse,13.7046341,100.5956986,Bangkok,Thailand,,0872242442,,,wlan,no,,,https://www.openstreetmap.org/node/13726864423
13759014801,J No. 14,guesthouse,13.7231805,100.5030779,Bangkok,Thailand,ซอยเจริญนคร 14 แยก 16,+66635949546,,,wlan,,,,https://www.openstreetmap.org/node/13759014801
107936511,Rambuttri 154,guesthouse,13.7596819,100.498078,Bangkok,Thailand,,,,,,yes,,,https://www.openstreetmap.org/way/107936511
107936515,Four Sons Inn,guesthouse,13.7595139,100.498409,Bangkok,Thailand,,,,,,,,,https://www.openstreetmap.org/way/107936515
113135449,Knightsbridge Prime Onnut,apartment,13.7097735,100.6023811,Bangkok,Thailand,,,,,,,,,https://www.openstreetmap.org/way/113135449
120179117,Room Residence,guesthouse,13.7612946,100.4937959,Bangkok,Thailand,,,,,,,,,https://www.openstreetmap.org/way/120179117
121197812,Freeway Guest House,guesthouse,13.7879008,100.5521875,Bangkok,Thailand,,,,,,no,,,https://www.openstreetmap.org/way/121197812
121459619,Sawasdee Bangkok Inn,guesthouse,13.7584794,100.4968187,Bangkok,Thailand,ถนนข้าวสาร,,,,,,,,https://www.openstreetmap.org/way/121459619
134106781,BB House II,guesthouse,13.760834,100.4935631,Bangkok,Thailand,ซอยรามบุตรี,,,,,,,,https://www.openstreetmap.org/way/134106781
138947233,แบงค็อกเบดแอนด์ไบค์,hostel,13.7473942,100.4974451,Bangkok,Thailand,ถนนเจริญกรุง,+66 94 487 8058,https://www.bangkokbedandbike.com/,,wlan,,,,https://www.openstreetmap.org/way/138947233
153174628,Refill Now,hostel,13.7349247,100.6008746,Bangkok,Thailand,,,http://www.refillnow.co.th/,,wlan,,,,https://www.openstreetmap.org/way/153174628
155967093,Bluefin,guesthouse,13.7858092,100.5133618,Bangkok,Thailand,,,https://bluefinguesthouse.webs.com/,,wlan,,,,https://www.openstreetmap.org/way/155967093
166512092,Wild Orchid Villa,guesthouse,13.7619325,100.494184,Bangkok,Thailand,,,,,,,,,https://www.openstreetmap.org/way/166512092
169952889,Center Point Hotel,guesthouse,13.7590737,100.4975225,Bangkok,Thailand,,,,,,,,,https://www.openstreetmap.org/way/169952889
169953604,Roof Garden,guesthouse,13.7614674,100.4938583,Bangkok,Thailand,,,,,,,,,https://www.openstreetmap.org/way/169953604
169953610,โรงแรมสวัสดีเฮ้าส์,guesthouse,13.7609609,100.4963845,Bangkok,Thailand,รามบุตรี,+66 2 281 8138,http://www.sawasdee-house.com,24/7,wlan,no,,,https://www.openstreetmap.org/way/169953610
169953611,Green,guesthouse,13.7619737,100.4946894,Bangkok,Thailand,,,,,,,,,https://www.openstreetmap.org/way/169953611
169953615,New My House Restaurant & Hostel,guesthouse,13.7621632,100.4947677,Bangkok,Thailand,,+66 2 282 9263,,,wlan,no,,,https://www.openstreetmap.org/way/169953615
169953619,Merry V,guesthouse,13.7620384,100.4947494,Bangkok,Thailand,,,,,,,,,https://www.openstreetmap.org/way/169953619
169953621,Bella Bella House,guesthouse,13.7615721,100.4942153,Bangkok,Thailand,,,,,,,,,https://www.openstreetmap.org/way/169953621
190739145,A & A Guesthouse,guesthouse,13.761285,100.4936767,Bangkok,Thailand,,,,,,,,,https://www.openstreetmap.org/way/190739145
190739154,New Siam 3,guesthouse,13.7622951,100.4955122,Bangkok,Thailand,,,,,,,,,https://www.openstreetmap.org/way/190739154
203322622,Bella Bella Riverview,guesthouse,13.7657882,100.4969588,Bangkok,Thailand,,,,,yes,,,,https://www.openstreetmap.org/way/203322622
203322626,Riverline GH,guesthouse,13.7654541,100.4965308,Bangkok,Thailand,,,,,,,,,https://www.openstreetmap.org/way/203322626
204273311,K.S. House,guesthouse,13.7626961,100.498013,Bangkok,Thailand,,,http://www.ks-house.net/,,,,,,https://www.openstreetmap.org/way/204273311
204273312,Mad Monkey Bangkok,hostel,13.7633141,100.4969899,Bangkok,Thailand,ถนนพระสุเมรุ,,https://www.madmonkeyhostels.com/,,wlan,,,,https://www.openstreetmap.org/way/204273312
204273318,Jam Hostel Bangkok,hostel,13.7634023,100.4969247,Bangkok,Thailand,,,https://jamhostelbangkok.com/,,,,,,https://www.openstreetmap.org/way/204273318
204273320,Penpark Place,guesthouse,13.7654415,100.4976654,Bangkok,Thailand,,,,,,,,,https://www.openstreetmap.org/way/204273320
204411855,Sivarin Guesthouse,guesthouse,13.766053,100.4979013,Bangkok,Thailand,,,,,,,,,https://www.openstreetmap.org/way/204411855
204421848,Sam Sen Sam Place,guesthouse,13.7654776,100.4982126,Bangkok,Thailand,Samsen Soi 3,+66 (02) 6287067,,,,,,,https://www.openstreetmap.org/way/204421848
204458621,Green Garden,guesthouse,13.7663932,100.4993963,Bangkok,Thailand,Samsen Soi 5,,,,,,,,https://www.openstreetmap.org/way/204458621
204508840,Bamboo Guesthouse,guesthouse,13.7652224,100.4966757,Bangkok,Thailand,Samsen Soi 1,+66 2 2823412,http://bamboo-guesthouse.com/,,,,,,https://www.openstreetmap.org/way/204508840
206198130,Sinad Guesthouse,guesthouse,13.7637691,100.4987791,Bangkok,Thailand,Samsen Soi 1,,,,,,,,https://www.openstreetmap.org/way/206198130
208734594,Pranakorn Inn,guesthouse,13.7633907,100.4994582,Bangkok,Thailand,Trok Wat Tree,,,,wlan,,,,https://www.openstreetmap.org/way/208734594
214485680,Worapong Guest House,guesthouse,13.7638716,100.5012038,Bangkok,Thailand,,,,,,,,,https://www.openstreetmap.org/way/214485680
233815022,New Merry V,guesthouse,13.761701,100.4933267,Bangkok,Thailand,,,,,,,,,https://www.openstreetmap.org/way/233815022
234192886,Place Inn,guesthouse,13.7611962,100.4936373,Bangkok,Thailand,,,,,,,,,https://www.openstreetmap.org/way/234192886
234192955,Sawasdee Smile Inn,guesthouse,13.7603127,100.4939913,Bangkok,Thailand,,,,,,,,,https://www.openstreetmap.org/way/234192955
234193326,Peachy,guesthouse,13.7615189,100.493287,Bangkok,Thailand,,,,,,,,,https://www.openstreetmap.org/way/234193326
234193357,Phra Athit Mansion,guesthouse,13.7616888,100.4934839,Bangkok,Thailand,,,,,,,,,https://www.openstreetmap.org/way/234193357
234193580,Happio,guesthouse,13.762141,100.4939402,Bangkok,Thailand,Phra Athit Road,,,,wlan,,,,https://www.openstreetmap.org/way/234193580
234193720,Thara House,guesthouse,13.7625639,100.4943687,Bangkok,Thailand,,,,,wlan,,,,https://www.openstreetmap.org/way/234193720
234222401,Erawan House,guesthouse,13.7621822,100.4943614,Bangkok,Thailand,,,,,,,,,https://www.openstreetmap.org/way/234222401
234351041,Gecko,guesthouse,13.7619568,100.4945848,Bangkok,Thailand,,,,,,,,,https://www.openstreetmap.org/way/234351041
234351043,บ้านแม่แจ่ม,apartment,13.7581827,100.4997369,Bangkok,Thailand,,,,,,,,,https://www.openstreetmap.org/way/234351043
234351097,Sawasdee Khaosan Inn,guesthouse,13.7588072,100.4952023,Bangkok,Thailand,,,,,,,,,https://www.openstreetmap.org/way/234351097
234366077,Pannee Lodge,guesthouse,13.7594206,100.495534,Bangkok,Thailand,,,,,,no,,,https://www.openstreetmap.org/way/234366077
234366078,Traveler's GH,guesthouse,13.7594117,100.4950726,Bangkok,Thailand,,,,,,,,,https://www.openstreetmap.org/way/234366078
234374852,Tai Derm,hostel,13.7585014,100.4988007,Bangkok,Thailand,,,,,,,,,https://www.openstreetmap.org/way/234374852
234375356,Lub d,hostel,13.7469364,100.5286211,Bangkok,Thailand,Rama I Road,,,,,,,,https://www.openstreetmap.org/way/234375356
234856620,BB House,guesthouse,13.7622751,100.4939541,Bangkok,Thailand,,,,,,,,,https://www.openstreetmap.org/way/234856620
234856621,Khaosan Green House Hostel,guesthouse,13.7600635,100.496974,Bangkok,Thailand,,,,,,,,,https://www.openstreetmap.org/way/234856621
253658489,Cozy Bangkok Place,guesthouse,13.7375009,100.5206374,Bangkok,Thailand,"Soi.Sunthonpimol, Rama 4 Road",+66 2 611 9178,https://www.cozybangkok.com/,,wlan,,,,https://www.openstreetmap.org/way/253658489
261528728,Anil Sathorn 12,apartment,13.7210619,100.5257639,Bangkok,Thailand,,,,,,,,,https://www.openstreetmap.org/way/261528728
292574906,The Hive,coworking,13.7320059,100.5766205,Bangkok,Thailand,สุขุมวิท 49,,,,,,,,https://www.openstreetmap.org/way/292574906
319082626,S1 Hostel,hostel,13.7211504,100.5460605,Bangkok,Thailand,,+6626797777,https://www.s1hostelbangkok.com/,,wlan,no,,,https://www.openstreetmap.org/way/319082626
329745962,Two Three A Homely Hotel,guesthouse,13.7378004,100.5636729,Bangkok,Thailand,Soi Sukhumvit 23,,,,,,,,https://www.openstreetmap.org/way/329745962
331795184,Prima House,guesthouse,13.7790577,100.5792808,Bangkok,Thailand,,,,,,,,,https://www.openstreetmap.org/way/331795184
331967774,วิสุนีย์ แมนชั่น,apartment,13.7460468,100.549112,Bangkok,Thailand,ซอยนายเลิศ,,,,,,,,https://www.openstreetmap.org/way/331967774
332206401,3 Howw Sukhumvit 21,hostel,13.740643,100.5625014,Bangkok,Thailand,Sukhumvit 31,,,,,,,,https://www.openstreetmap.org/way/332206401
333134169,Story@Bangkok,guesthouse,13.7264895,100.5700107,Bangkok,Thailand,,,http://www.storyatbangkok.com/,,,,,,https://www.openstreetmap.org/way/333134169
333223544,Chern hostel,hostel,13.7513709,100.5032158,Bangkok,Thailand,"Soi Ratchasak, Bamrung Muang Road Samran Rat, Phra Nakhon",+66 2 621 1133,,,,,,,https://www.openstreetmap.org/way/333223544
334185338,พบรัก,guesthouse,13.6800356,100.5851426,Bangkok,Thailand,,,,,,,,,https://www.openstreetmap.org/way/334185338
338398185,Cozy at Ten,guesthouse,13.7383437,100.5574581,Bangkok,Thailand,,+6626533934,http://www.cozyatten.com/,,,,,,https://www.openstreetmap.org/way/338398185
353882592,U-Sabuy,guesthouse,13.6988373,100.6095099,Bangkok,Thailand,ซอยสุขุมวิท 97,+6627303000,,,wlan,,,,https://www.openstreetmap.org/way/353882592
356189144,InnStations hostel,hostel,13.7382357,100.5190172,Bangkok,Thailand,ถนนจารุเมือง,,,,,,,,https://www.openstreetmap.org/way/356189144
366712957,Siamaze Hostel,hostel,13.7861945,100.5702386,Bangkok,Thailand,รัชดาภิเษก 17,02 693 6336,http://siamaze.com/,,wlan,,,,https://www.openstreetmap.org/way/366712957
369388464,Agnes Place,apartment,13.7911576,100.57843,Bangkok,Thailand,ซอยสบายใจ แยก 3,+6626932995,,,wlan,,,,https://www.openstreetmap.org/way/369388464
402125028,หอพักหญิงสองพระ,apartment,13.7321379,100.5217823,Bangkok,Thailand,ซอยสองพระ,,,,,,,,https://www.openstreetmap.org/way/402125028
402125029,iSanook Bangkok,hostel,13.7327378,100.5216965,Bangkok,Thailand,ซอยสองพระ,+6626333636,https://www.i-sanook.com,,yes,,,,https://www.openstreetmap.org/way/402125029
457285024,Hubba,coworking,13.7252911,100.5876503,Bangkok,Thailand,เอกมัย ซอย 4,,https://www.hubbathailand.com/,,,,,,https://www.openstreetmap.org/way/457285024
478200947,Oriental Smile BnB,guesthouse,13.7584808,100.539652,Bangkok,Thailand,,,,,,,,,https://www.openstreetmap.org/way/478200947
486682599,Lumpini Water Cliff Building D,apartment,13.7002658,100.5385267,Bangkok,Thailand,,,,,,,,,https://www.openstreetmap.org/way/486682599
501756381,John and Peter's Tropical Villa,hostel,13.7231436,100.5454914,Bangkok,Thailand,,,,,yes,,John F.,,https://www.openstreetmap.org/way/501756381
534816202,Dragon XIV Hostel,hostel,13.9231827,100.6015167,Bangkok,Thailand,ถนน สรงประภา แขวง เขตดอนเมือง,0925163956,https://dragon-xiv-hostel.business.site/,Mo-Su 14:00-24:00,wlan,,,,https://www.openstreetmap.org/way/534816202
539350738,Zee Thai Hostel,hostel,13.7637673,100.5032737,Bangkok,Thailand,บ้านพานถม,,,,wlan,,,,https://www.openstreetmap.org/way/539350738
544565267,B1,apartment,13.7633098,100.616758,Bangkok,Thailand,,,,,,,,,https://www.openstreetmap.org/way/544565267
544565269,B2,apartment,13.7641241,100.6166367,Bangkok,Thailand,,,,,,,,,https://www.openstreetmap.org/way/544565269
544565270,B3,apartment,13.7649358,100.6164903,Bangkok,Thailand,,,,,,,,,https://www.openstreetmap.org/way/544565270
544565273,B4,apartment,13.7657626,100.6163688,Bangkok,Thailand,,,,,,,,,https://www.openstreetmap.org/way/544565273
544565274,C,apartment,13.7666842,100.6162344,Bangkok,Thailand,,,,,,,,,https://www.openstreetmap.org/way/544565274
544565275,D1,apartment,13.7674317,100.6161092,Bangkok,Thailand,,,,,,,,,https://www.openstreetmap.org/way/544565275
544565276,D2,apartment,13.7682528,100.6159814,Bangkok,Thailand,,,,,,,,,https://www.openstreetmap.org/way/544565276
544565277,D3,apartment,13.7690552,100.6158351,Bangkok,Thailand,,,,,,,,,https://www.openstreetmap.org/way/544565277
544565278,D4,apartment,13.7698718,100.6156956,Bangkok,Thailand,,,,,,,,,https://www.openstreetmap.org/way/544565278
544565280,มาเมซอง คอนโด,apartment,13.7722789,100.6151723,Bangkok,Thailand,,,,,,,,,https://www.openstreetmap.org/way/544565280
545625370,Mistletoe Bakery & Hostel,hostel,13.731141,100.588427,Bangkok,Thailand,,,,,,,,,https://www.openstreetmap.org/way/545625370
548351452,Hi Bangkok,hostel,13.7691708,100.5070774,Bangkok,Thailand,,,,,,,,,https://www.openstreetmap.org/way/548351452
548351453,Hi Thewet,hostel,13.7691007,100.5069635,Bangkok,Thailand,,,https://www.hihostels.com/,,,,,,https://www.openstreetmap.org/way/548351453
602131142,Sri-Ayuttaya Guesthouse,guesthouse,13.7719158,100.5036788,Bangkok,Thailand,ถนนศรีอยุธยา,+66 0 2 281 6829,,,yes,no,,,https://www.openstreetmap.org/way/602131142
624442042,สุเนต์ตา,hostel,13.7606464,100.4990644,Bangkok,Thailand,,,,,,,,,https://www.openstreetmap.org/way/624442042
626242506,Full House Khaosan Hostel,hostel,13.7613189,100.4990662,Bangkok,Thailand,ถนนพระสุเมรุ,+66-2-002-0771,http://www.fullhousekhaosan.book.direct/,,,,,,https://www.openstreetmap.org/way/626242506
627758421,Metro Park Sathorn phase 2/2,apartment,13.7106725,100.4496961,Bangkok,Thailand,Kallaprapruk,,,,,,,,https://www.openstreetmap.org/way/627758421
627758422,Metropark Satorn,apartment,13.7098863,100.4510246,Bangkok,Thailand,Kallaprapruk,,,,,,,,https://www.openstreetmap.org/way/627758422
627758423,The Lake Metropark Satorn,apartment,13.711906,100.4509143,Bangkok,Thailand,Kallaprapruk,,,,,,,,https://www.openstreetmap.org/way/627758423
628608339,บ้านบวร,guesthouse,13.7607337,100.4992285,Bangkok,Thailand,ถนนสิบสามห้าง,+66 2 282 2398,,,wlan,,,,https://www.openstreetmap.org/way/628608339
635952762,Timber Hostel,hostel,13.7524397,100.5283127,Bangkok,Thailand,ซอยพญานาค,+66972192384,https://www.timberhostel.com/,,,,,,https://www.openstreetmap.org/way/635952762
676062726,Ratchaprarob Garden Condominium,apartment,13.7691879,100.549313,Bangkok,Thailand,ซอยอรรณพนฤมิตร,,,,,,,,https://www.openstreetmap.org/way/676062726
676445601,Homie,hostel,13.7425541,100.5622324,Bangkok,Thailand,,,,,,,,,https://www.openstreetmap.org/way/676445601
680736465,Magnolias Waterfront Residences,apartment,13.7275269,100.5104956,Bangkok,Thailand,,,,,,,,,https://www.openstreetmap.org/way/680736465
707618990,Pho Place,guesthouse,13.7384646,100.511501,Bangkok,Thailand,,,,,wlan,,,,https://www.openstreetmap.org/way/707618990
895884982,The Parkland Phetkasem 56,apartment,13.7143481,100.4330037,Bangkok,Thailand,เพชรเกษม 56,+6621620500,https://www.naraiproperty.com/project/plps,,wired,limited,บริษัท นารายณ์พร็อพเพอตี้ จำกัด,,https://www.openstreetmap.org/way/895884982
897437130,Check-in My Hostel,hostel,13.7502249,100.5281977,Bangkok,Thailand,"Soi Phaya Nak, Petchaburi",,,,,,,,https://www.openstreetmap.org/way/897437130
901679356,Grannylla residence ladprao,apartment,13.7707983,100.6324254,Bangkok,Thailand,Lat Phrao 130,,,,,,,,https://www.openstreetmap.org/way/901679356
997450677,Siam Subway Hostel,hostel,13.7474555,100.5022534,Bangkok,Thailand,,,,,,,,,https://www.openstreetmap.org/way/997450677
1020471382,นิวแสงทอง คอร์ท,apartment,13.7282348,100.5236168,Bangkok,Thailand,,,,,,,,,https://www.openstreetmap.org/way/1020471382
1022211515,Mascot Hostel,hostel,13.7535836,100.5434532,Bangkok,Thailand,,,,,,,,,https://www.openstreetmap.org/way/1022211515
1022211518,Mascot Hostel,hostel,13.7535981,100.5433996,Bangkok,Thailand,,,,,,,,,https://www.openstreetmap.org/way/1022211518
1022211519,Mascot Hostel,hostel,13.7534228,100.5432316,Bangkok,Thailand,,,,,,,,,https://www.openstreetmap.org/way/1022211519
1022211520,Mascot Hostel,hostel,13.7536261,100.5432851,Bangkok,Thailand,,,,,,,,,https://www.openstreetmap.org/way/1022211520
1039696987,Victory Hostel,hostel,13.7628267,100.5407978,Bangkok,Thailand,,,,,,,,,https://www.openstreetmap.org/way/1039696987
1049501436,MWIT guest house (หอ 14),hostel,13.799505,100.3197746,Bangkok,Thailand,,,,,wlan,,โรงเรียนมหิดลวิทยานุสรณ์,,https://www.openstreetmap.org/way/1049501436
1085144436,The Parkland เดอะ พาร์คแลนด์ เพชรเกษม บางแค,apartment,13.7100156,100.409354,Bangkok,Thailand,,,,,,,,,https://www.openstreetmap.org/way/1085144436
1101546219,เดอะ รูม พระราม 4,apartment,13.7364249,100.5210623,Bangkok,Thailand,,,,,,,,,https://www.openstreetmap.org/way/1101546219
1103566240,วีเอส เรซิเดนซ์,apartment,13.7280582,100.5204648,Bangkok,Thailand,ซอยพุทธโอสถ,,,,,,,,https://www.openstreetmap.org/way/1103566240
1112070101,ลานดาวทาวเวอร์,apartment,13.6217445,100.6298164,Bangkok,Thailand,,,,,,,,,https://www.openstreetmap.org/way/1112070101
1137792470,Ban Thanarak Condominium Building 1,apartment,13.8640234,100.5135905,Bangkok,Thailand,,,,,,,,,https://www.openstreetmap.org/way/1137792470
1137792471,Ban Thanarak Condominium Building 2,apartment,13.8639444,100.5142218,Bangkok,Thailand,,,,,,,,,https://www.openstreetmap.org/way/1137792471
1137792472,Ban Thanarak Condominium Building 3,apartment,13.8638537,100.5148305,Bangkok,Thailand,,,,,,,,,https://www.openstreetmap.org/way/1137792472
1137792473,Ban Thanarak Condominium Building 4,apartment,13.8642489,100.5148911,Bangkok,Thailand,,,,,,,,,https://www.openstreetmap.org/way/1137792473
1137792474,Ban Thanarak Condominium Building 5,apartment,13.8643351,100.5142772,Bangkok,Thailand,,,,,,,,,https://www.openstreetmap.org/way/1137792474
1137792475,Ban Thanarak Condominium Building 6,apartment,13.8644476,100.5136305,Bangkok,Thailand,,,,,,,,,https://www.openstreetmap.org/way/1137792475
1137792476,Ban Thanarak Condominium Building 7,apartment,13.8647552,100.5143727,Bangkok,Thailand,,,,,,,,,https://www.openstreetmap.org/way/1137792476
1137792477,Ban Thanarak Condominium Building 8,apartment,13.8651573,100.5144157,Bangkok,Thailand,,,,,,,,,https://www.openstreetmap.org/way/1137792477
1160458054,มารวย ลิฟวิ่ง อพาร์ทเม้นท์,apartment,13.750826,100.5045235,Bangkok,Thailand,,+662 226 5430,https://page.line.me/653dssxh,,,,,,https://www.openstreetmap.org/way/1160458054
1169819718,เอส. เค. แมนชั่น,apartment,13.7485019,100.5279318,Bangkok,Thailand,,,,,,,,,https://www.openstreetmap.org/way/1169819718
1185591707,ยูเค แมนชั่น,apartment,13.7282844,100.5304091,Bangkok,Thailand,ซอยสีลม 6,022660446,https://www.facebook.com/UK-Mansion-157399284285686/?ref=page_internal,24/7,wlan,,,,https://www.openstreetmap.org/way/1185591707
1186723871,Tamni,hostel,13.7382483,100.5178911,Bangkok,Thailand,ถนนพระรามที่ 4,,,,wlan,,,,https://www.openstreetmap.org/way/1186723871
1187605242,ไลค์โฮม,apartment,13.7295861,100.5181925,Bangkok,Thailand,,,,,,,,,https://www.openstreetmap.org/way/1187605242
1197033848,บีซี เกสเฮ้าส์,guesthouse,13.7308537,100.5148131,Bangkok,Thailand,,+6696 130 8633,,,,,,,https://www.openstreetmap.org/way/1197033848
1201664273,S52 สามย่าน,apartment,13.7309074,100.5270977,Bangkok,Thailand,,,,,,,,,https://www.openstreetmap.org/way/1201664273
1201731770,เมโทรเพลส,apartment,13.7295592,100.5262738,Bangkok,Thailand,,,,,,,,,https://www.openstreetmap.org/way/1201731770
1204961956,Nara Suite Residence,apartment,13.7000498,100.5341122,Bangkok,Thailand,,,,,,,,,https://www.openstreetmap.org/way/1204961956
1207492153,รินลดา,apartment,13.6315255,100.6214132,Bangkok,Thailand,,,,,,,,,https://www.openstreetmap.org/way/1207492153
1211929056,Simply Sleep,hostel,13.7290449,100.5239969,Bangkok,Thailand,ถนนนเรศ,06 9897999,,,,,,,https://www.openstreetmap.org/way/1211929056
1211929067,Room15,apartment,13.7289179,100.5241429,Bangkok,Thailand,ซอยสันติภาพ,,,,,,,,https://www.openstreetmap.org/way/1211929067
1211935647,Silom 10 Residence,apartment,13.7270947,100.5286438,Bangkok,Thailand,ซอยสีลม 10,,,,,,,,https://www.openstreetmap.org/way/1211935647
1214131035,Pann Residence,apartment,13.7246229,100.5195323,Bangkok,Thailand,ซอยปราโมทย์ 3,,,,,,,,https://www.openstreetmap.org/way/1214131035
1214801105,ตึก A,apartment,13.8581442,100.6460776,Bangkok,Thailand,,,,,,,,,https://www.openstreetmap.org/way/1214801105
1214801106,ตึก B,apartment,13.8581622,100.6463695,Bangkok,Thailand,,,,,,,,,https://www.openstreetmap.org/way/1214801106
1214801107,ตึก C,apartment,13.8576454,100.646317,Bangkok,Thailand,,,,,,,,,https://www.openstreetmap.org/way/1214801107
1214801108,ตึก D,apartment,13.857355,100.6463146,Bangkok,Thailand,,,,,,,,,https://www.openstreetmap.org/way/1214801108
1216397891,หอพักแตงกวา,apartment,13.7263063,100.7702296,Bangkok,Thailand,ฉลองกรุง 1 แยก 1,,https://www.tiktok.com/@tangkwadorm?is_from_webapp=1&sender_device=pc,,wlan,no,,,https://www.openstreetmap.org/way/1216397891
1217419683,เอสเอ็น อพาร์ทเม้นท์,apartment,13.8471753,100.6489817,Bangkok,Thailand,,,,,,,,,https://www.openstreetmap.org/way/1217419683
1219058178,iHome Apartment,apartment,13.8534518,100.6488465,Bangkok,Thailand,,,,,,,,,https://www.openstreetmap.org/way/1219058178
1219058179,Katie's Apartment,apartment,13.8535515,100.6481613,Bangkok,Thailand,,,,,,,,,https://www.openstreetmap.org/way/1219058179
1219058185,วัชรพลเพลส,apartment,13.8584713,100.647277,Bangkok,Thailand,,,,,,,,,https://www.openstreetmap.org/way/1219058185
1219058186,ถนอมมิตร อพาร์ทเม้นท์,apartment,13.8579757,100.6473783,Bangkok,Thailand,,,,,,,,,https://www.openstreetmap.org/way/1219058186
1219058187,บ้านโอฬาร,apartment,13.8584921,100.6471035,Bangkok,Thailand,,,,,,,,,https://www.openstreetmap.org/way/1219058187
1219724714,My Thai Hostel,hostel,13.7204632,100.5379682,Bangkok,Thailand,ถนนสวนพลู,,,,,,,,https://www.openstreetmap.org/way/1219724714
1219970040,Superhome Sathorn,apartment,13.7221874,100.5399221,Bangkok,Thailand,ซอยสวนพลู 6,,,,,,,,https://www.openstreetmap.org/way/1219970040
1220700326,ชาเทล,hostel,13.733949,100.5266098,Bangkok,Thailand,ถนนพระรามที่ 4,,,,,,,,https://www.openstreetmap.org/way/1220700326
1224329572,บ้านพักกรุงเทพคริสเตียน,guesthouse,13.7269551,100.5342759,Bangkok,Thailand,ซอยศาลาแดง 2,,,,,,,,https://www.openstreetmap.org/way/1224329572
1224799222,Good day@bann silom,hostel,13.7268836,100.5379317,Bangkok,Thailand,ซอยยมราช,+66 81 344 1834,,,,,,,https://www.openstreetmap.org/way/1224799222
1224946034,CLOUD on SALA DAENG,hostel,13.7266024,100.5380442,Bangkok,Thailand,ซอยศาลาแดง 1/1,+66 2 029 9729,https://www.cloudonsaladaeng.com,,,,,,https://www.openstreetmap.org/way/1224946034
1225025801,ML Mansion,apartment,13.8492317,100.6439477,Bangkok,Thailand,,,,,,,,,https://www.openstreetmap.org/way/1225025801
1226871567,The Greens Boutique Hotel Bangkok,guesthouse,13.7606048,100.4936984,Bangkok,Thailand,Ram Buttri Aly,,,,,,,,https://www.openstreetmap.org/way/1226871567
1227278504,Lazy Sunday Hostel,hostel,13.746891,100.5245717,Bangkok,Thailand,ซอยจุฬาลงกรณ์ 2,+66 61 031 5593,,,,,,,https://www.openstreetmap.org/way/1227278504
1234813992,C40Winks,hostel,13.72632,100.5315485,Bangkok,Thailand,ซอยสีลม 3,,,,,,,,https://www.openstreetmap.org/way/1234813992
1234957877,Bunny Burrow,hostel,13.7319444,100.5145342,Bangkok,Thailand,ถนนโยธา,+6663 191 4545,,,,,,,https://www.openstreetmap.org/way/1234957877
1235152443,Four Sisters Homestay,hostel,13.7321101,100.5138827,Bangkok,Thailand,ถนนโยธา,,,,,,,,https://www.openstreetmap.org/way/1235152443
1237710699,Good One Hostel,hostel,13.7255032,100.5288676,Bangkok,Thailand,ถนนนราธิวาสราชนครินทร์,,,,,,,,https://www.openstreetmap.org/way/1237710699
1238743741,บ้าน 1194,guesthouse,13.6985643,100.5280008,Bangkok,Thailand,ซอยจันทน์ 43 แยก 26,,,,,,,,https://www.openstreetmap.org/way/1238743741
1241297496,The Orientale,hostel,13.7390602,100.5132032,Bangkok,Thailand,ถนนกลันตัน,,,,,,,,https://www.openstreetmap.org/way/1241297496
1241672536,สุเมธอะพาทเม้นท์,apartment,13.8849836,100.6049094,Bangkok,Thailand,,,,,,,,,https://www.openstreetmap.org/way/1241672536
1241672538,48 วิลล์ ดอนเมือง แอร์พอร์ต,apartment,13.8843708,100.6064447,Bangkok,Thailand,,,,,,,,,https://www.openstreetmap.org/way/1241672538
1241673669,คาซ่า เดอ ซานซาร่า คอนโดมิเนี่ยม,apartment,13.8838368,100.6054533,Bangkok,Thailand,,,,,,,,,https://www.openstreetmap.org/way/1241673669
1268430963,รินทร์ทองอะพาทเมนท์,apartment,13.6357796,100.5974339,Bangkok,Thailand,,,,,,,,,https://www.openstreetmap.org/way/1268430963
1270930063,นิติการณ์เพลส,apartment,13.7413811,100.4729743,Bangkok,Thailand,,,,,,,,,https://www.openstreetmap.org/way/1270930063
1284584423,Loftel 22,hostel,13.7332329,100.5143588,Bangkok,Thailand,ซอยเจริญกรุง 22,+66021179322,http://www.loftel22bangkok.com/,,,,,,https://www.openstreetmap.org/way/1284584423
1298094979,WH Hostel,hostel,13.7361437,100.5517114,Bangkok,Thailand,,,,,,,,,https://www.openstreetmap.org/way/1298094979
1298094980,H-District Boutique Poshotel,hostel,13.7362453,100.5519256,Bangkok,Thailand,,,,,,,,,https://www.openstreetmap.org/way/1298094980
1306114570,Cozy Stay Inn,guesthouse,13.7365761,100.5532394,Bangkok,Thailand,ซอยสุขุมวิท 4,,,,,,,,https://www.openstreetmap.org/way/1306114570
1332823746,Bubble Space Hostel,hostel,13.6877688,100.4930366,Bangkok,Thailand,,,,,,,,,https://www.openstreetmap.org/way/1332823746
1339403090,Kloem Hostel,hostel,13.7579964,100.527493,Bangkok,Thailand,,+66955255522,https://www.kloemhostel.com/,,,,,,https://www.openstreetmap.org/way/1339403090
1354719701,14 เกสเฮ้าส์,guesthouse,13.8174463,100.7350274,Bangkok,Thailand,,,,,,,,,https://www.openstreetmap.org/way/1354719701
1357090696,แอสไปร์ สาทร ราชพฤกษ์,apartment,13.7165919,100.4583742,Bangkok,Thailand,,02-044-3805,,Mo-Su 09:00-18:00,,,,,https://www.openstreetmap.org/way/1357090696
1363087292,Pillows and purrs,guesthouse,13.7763108,100.5593904,Bangkok,Thailand,ซอยวิภาวดีรังสิต 2 แยก 4-3,,,,,,,,https://www.openstreetmap.org/way/1363087292
1370789891,U & D Guesthouse,guesthouse,13.7532018,100.4995515,Bangkok,Thailand,ซอยนามชัย,,,,,,,,https://www.openstreetmap.org/way/1370789891
1426347584,The Unforgotten B&B,hostel,13.7368835,100.5145037,Bangkok,Thailand,ซอยสุกร 2,"+662-082-2100, +669-7164-2910",http://www.theunforgottenbnb.com/,,wlan,,,,https://www.openstreetmap.org/way/1426347584
1454383876,บ้านนาวา,hostel,13.7523739,100.4993984,Bangkok,Thailand,ซอยเทศา,+66 61 969 6198,,,,,,,https://www.openstreetmap.org/way/1454383876
1456680883,double b hostel,hostel,13.7528378,100.4990847,Bangkok,Thailand,ตรอกนาวา,,,,,,,,https://www.openstreetmap.org/way/1456680883
1466785038,Once Again Hostel,hostel,13.752815,100.5033751,Bangkok,Thailand,ซอยสำราญราษฎร์,,,,wlan,,,,https://www.openstreetmap.org/way/1466785038
1467757036,THE HOG,guesthouse,13.737881,100.493148,Bangkok,Thailand,,,,,,,,,https://www.openstreetmap.org/way/1467757036
