osm_id,name,category,lat,lon,city,country,address,phone,website,opening_hours,wifi,wheelchair,operator,brand,osm_url
444402400,ศูนย์สารนิเทศมนุษยศาสตร์,library,13.7386162,100.5336586,Bangkok,Thailand,,,,,,,,,https://www.openstreetmap.org/node/444402400
444402402,ห้องสมุด คณะเภสัชศาสตร์,library,13.7432724,100.5309772,Bangkok,Thailand,,,,,,,,,https://www.openstreetmap.org/node/444402402
444402403,Unnamed,library,13.7430556,100.5340671,Bangkok,Thailand,,,,,,,,,https://www.openstreetmap.org/node/444402403
447589953,New Road Guesthouse,hostel,13.725687,100.516011,Bangkok,Thailand,,,,,,,,,https://www.openstreetmap.org/node/447589953
735122008,ห้องสมุดเพื่อการเรียนรู้,library,13.7197004,100.7806989,Bangkok,Thailand,,,,Tu-Sa 08:30-19:30; Su 09:00-17:00,wlan,yes,,,https://www.openstreetmap.org/node/735122008
893975287,whiteplace,hostel,13.8597904,100.5487864,Bangkok,Thailand,,,,,,,,,https://www.openstreetmap.org/node/893975287
893975291,sun,hostel,13.8590925,100.5488294,Bangkok,Thailand,,,,,,,,,https://www.openstreetmap.org/node/893975291
939955124,Java Cafe House,wifi_cafe,13.8190637,100.5923155,Bangkok,Thailand,ถนนลาดพร้าววังหิน,,,,yes,,,,https://www.openstreetmap.org/node/939955124
971363511,We Train Intl. House,hostel,13.9389596,100.5843484,Bangkok,Thailand,,,www.we-train.co.th,,,,,,https://www.openstreetmap.org/node/971363511
975846068,ห้องสมุดประชาชนกรุงเทพมหานคร,library,13.6820367,100.5054036,Bangkok,Thailand,,,,,,,,,https://www.openstreetmap.org/node/975846068
1088409423,ร้านซักรีด แพรไหม,laundry,13.7134261,100.6047913,Bangkok,Thailand,,,,,,,,,https://www.openstreetmap.org/node/1088409423
1199631258,ห้องสมุดเทศบาลเมืองพระประแดง,library,13.6601763,100.5304169,Bangkok,Thailand,,,,,,,,,https://www.openstreetmap.org/node/1199631258
1374612397,ห้องสมุดคณะวิศวกรรมศาสตร์,library,13.84561,100.5702192,Bangkok,Thailand,,,,,,no,,,https://www.openstreetmap.org/node/1374612397
1374626527,ห้องสมุดคณะเศรษฐศาสตร์,library,13.8437974,100.5700161,Bangkok,Thailand,,,,,,,,,https://www.openstreetmap.org/node/1374626527
1597521896,Science Library,library,13.84528,100.5722382,Bangkok,Thailand,,,,,,,,,https://www.openstreetmap.org/node/1597521896
1597644402,Bico : Specialty Coffee & Homemade Bakery,wifi_cafe,13.833508,100.6266186,Bangkok,Thailand,สุคนธสวัสดิ์,+66896661491,https://www.facebook.com/bicocafe,,yes,,,,https://www.openstreetmap.org/node/1597644402
1650896573,Starbucks,wifi_cafe,13.7421275,100.5516431,Bangkok,Thailand,,,https://www.starbucks.co.th/,,wlan,,,Starbucks,https://www.openstreetmap.org/node/1650896573
1658904686,Unnamed,laundry,13.7334101,100.5991277,Bangkok,Thailand,,,,,,,,,https://www.openstreetmap.org/node/1658904686
1694198859,ห้องสมุดและศูนย์สื่อการเรียนรู้,library,13.8515914,100.5684376,Bangkok,Thailand,,,,,,limited,,,https://www.openstreetmap.org/node/1694198859
1702370757,Thegardenhousecafe,wifi_cafe,13.6037315,100.5150274,Bangkok,Thailand,ถนนประชาอุทิศ,+66958288989;+66958288989,http://www.gardenhouseparty.com/,Mo-Su 09:00-23:00,wlan,,,The Gardenhouse Cafe,https://www.openstreetmap.org/node/1702370757
1705000978,Unnamed,laundry,13.9022789,100.5382493,Bangkok,Thailand,,,,,,,,,https://www.openstreetmap.org/node/1705000978
1705001973,เจ.วี. ซํกแห้ง,laundry,13.9060439,100.5378346,Bangkok,Thailand,,,,,,,,,https://www.openstreetmap.org/node/1705001973
1706519301,ละมัยซักแห้ง,laundry,13.9083226,100.5380877,Bangkok,Thailand,,,,,,,,,https://www.openstreetmap.org/node/1706519301
1707499161,ซินไฉฮั้ว ซักแห้ง,laundry,13.9135996,100.5394605,Bangkok,Thailand,,,,,,,,,https://www.openstreetmap.org/node/1707499161
1715872043,Unnamed,laundry,13.7940941,100.588322,Bangkok,Thailand,,,,,,,,,https://www.openstreetmap.org/node/1715872043
1715872052,Unnamed,laundry,13.7941019,100.5886486,Bangkok,Thailand,,,,,,,,,https://www.openstreetmap.org/node/1715872052
1730178225,Starbucks,wifi_cafe,13.7797359,100.544962,Bangkok,Thailand,,+6626130540,https://www.starbucks.co.th/,,wlan,,,Starbucks,https://www.openstreetmap.org/node/1730178225
1757029803,The Reading Room,library,13.7232384,100.52045,Bangkok,Thailand,สีลม 19,,https://readingroombkk.org/,,,,,,https://www.openstreetmap.org/node/1757029803
1795295271,Homestay,hostel,13.6769351,100.5825926,Bangkok,Thailand,,,,,,,,,https://www.openstreetmap.org/node/1795295271
1795295346,Homestay,hostel,13.677361,100.582911,Bangkok,Thailand,,,,,,,,,https://www.openstreetmap.org/node/1795295346
1795296725,Homestay,hostel,13.6756677,100.581541,Bangkok,Thailand,,,,,,,,,https://www.openstreetmap.org/node/1795296725
1800295277,บีเคเค เบเกิล เบเกอรี่,wifi_cafe,13.7438912,100.5420395,Bangkok,Thailand,,,http://www.bkkbagels.com,Mo-Su 07:00-17:00,yes,no,,BKK Bagel Bakery,https://www.openstreetmap.org/node/1800295277
1892795714,คุณแดง ซัก อบ รีด,laundry,13.7174631,100.4502589,Bangkok,Thailand,,,,,,,,,https://www.openstreetmap.org/node/1892795714
1906477919,Unnamed,laundry,13.650945,100.4066206,Bangkok,Thailand,,,,,,,,,https://www.openstreetmap.org/node/1906477919
1915030476,Unnamed,laundry,13.7178143,100.449912,Bangkok,Thailand,,,,,,,,,https://www.openstreetmap.org/node/1915030476
1930652283,Unnamed,laundry,13.7156844,100.4442066,Bangkok,Thailand,,,,,,,,,https://www.openstreetmap.org/node/1930652283
1930671767,นิวคลีนซักแห้ง,laundry,13.7159322,100.4441759,Bangkok,Thailand,,,,,,,,,https://www.openstreetmap.org/node/1930671767
1990593759,ห้องสมุดเพื่อการเรียนรู้ภาษีเจริญ,library,13.7137123,100.4391835,Bangkok,Thailand,,,,,,,,,https://www.openstreetmap.org/node/1990593759
2056964166,Unnamed,laundry,13.7152103,100.4381651,Bangkok,Thailand,,,,,,,,,https://www.openstreetmap.org/node/2056964166
2064781161,Starbucks,wifi_cafe,13.8342024,100.6105409,Bangkok,Thailand,,,https://www.starbucks.com/,,wlan,,,Starbucks,https://www.openstreetmap.org/node/2064781161
2064798501,Pancake Cafe,wifi_cafe,13.8346478,100.6108038,Bangkok,Thailand,,,,,wlan,,,,https://www.openstreetmap.org/node/2064798501
2065909838,Cleanmate Dryclean & Laundry,laundry,13.7420893,100.543851,Bangkok,Thailand,,,,,,,,,https://www.openstreetmap.org/node/2065909838
2066654973,Wash Me,laundry,13.8348107,100.6106751,Bangkok,Thailand,,,,,,,,,https://www.openstreetmap.org/node/2066654973
2074232887,Tom N Toms,wifi_cafe,13.7200582,100.5689202,Bangkok,Thailand,,,,,wlan,,,Tom N Toms,https://www.openstreetmap.org/node/2074232887
2076033785,I klean,laundry,13.7679032,100.4420375,Bangkok,Thailand,,,,,,,,,https://www.openstreetmap.org/node/2076033785
2104280987,i - klean,laundry,13.7798789,100.5453417,Bangkok,Thailand,,+66819156221,http://www.i-kleanlaundry.com/,Mo-Su 11:00-20:00,,,,,https://www.openstreetmap.org/node/2104280987
2111918427,Bag spa,laundry,13.8333974,100.6121892,Bangkok,Thailand,,+66847278998;+6629070655,http://www.bagspathailand.com/,Mo-Su 11:00-21:00,,,,,https://www.openstreetmap.org/node/2111918427
2129707136,Cafe De O'Sha,wifi_cafe,13.764415,100.499494,Bangkok,Thailand,,026288562,http://www.facebook.com/deosha.fanpage/,Mo-Su 07:00-16:00,wlan,,,,https://www.openstreetmap.org/node/2129707136
2133382081,Unnamed,laundry,13.7647011,100.4964384,Bangkok,Thailand,,,,,,,,,https://www.openstreetmap.org/node/2133382081
2133382105,Unnamed,laundry,13.7655406,100.4978758,Bangkok,Thailand,,,,,,,,,https://www.openstreetmap.org/node/2133382105
2143722460,Unnamed,laundry,13.7663092,100.5000359,Bangkok,Thailand,,,,"Mo-Tu 08:30-20:00, Th-Su 08:30-20:00",,,,,https://www.openstreetmap.org/node/2143722460
2186950903,ห้องสมุด หมู่บ้านธนินทร,library,13.9402035,100.6110545,Bangkok,Thailand,,,,,,,,,https://www.openstreetmap.org/node/2186950903
2234022915,Starbucks,wifi_cafe,13.7352875,100.5615096,Bangkok,Thailand,,,https://www.starbucks.co.th/,,wlan,,,Starbucks,https://www.openstreetmap.org/node/2234022915
2368064673,"Mama Bingsu , Bangkok 10310, Thaïlande",wifi_cafe,13.7675606,100.5987824,Bangkok,Thailand,"Condo Than Living Ratchada-Prachauthit Ramkhamhaeng Soi, 39, Prachauthit Road, whangthonglang, Wang Thonglang",+66 87 987 1083,www.mamabingsu.com,10:00-22:30,wlan,yes,,,https://www.openstreetmap.org/node/2368064673
2402013971,Unnamed,laundry,13.7629517,100.4999713,Bangkok,Thailand,,,,,,,,,https://www.openstreetmap.org/node/2402013971
2403971308,Rainbow,hostel,13.7594487,100.4952475,Bangkok,Thailand,,,,,wlan,,,,https://www.openstreetmap.org/node/2403971308
2403973210,NapPark Hostel,hostel,13.760775,100.497627,Bangkok,Thailand,,,,,wlan,,,,https://www.openstreetmap.org/node/2403973210
2403982859,SUSU Khaosan Hostel,hostel,13.7605511,100.4988633,Bangkok,Thailand,,,,,,,,,https://www.openstreetmap.org/node/2403982859
2403986909,Marco Polo,hostel,13.7588975,100.4980615,Bangkok,Thailand,,,,,,,,,https://www.openstreetmap.org/node/2403986909
2408310584,ETZ Hostel,hostel,13.7241696,100.5483429,Bangkok,Thailand,,+6622869424,http://www.etzhostel.com,,wlan,no,,,https://www.openstreetmap.org/node/2408310584
2408317219,HQ Hostel,hostel,13.7266192,100.531037,Bangkok,Thailand,,,,,,,,,https://www.openstreetmap.org/node/2408317219
2428799926,Charoendee Hostel,hostel,13.7589958,100.4976222,Bangkok,Thailand,,,,,,no,,,https://www.openstreetmap.org/node/2428799926
2494606497,Starbucks,wifi_cafe,13.750609,100.5384124,Bangkok,Thailand,,,https://www.starbucks.co.th/,,wlan,,,Starbucks,https://www.openstreetmap.org/node/2494606497
2499846890,Barn Thai Guesthous,hostel,13.7588392,100.4958204,Bangkok,Thailand,,,,,,no,,,https://www.openstreetmap.org/node/2499846890
2510005841,Unnamed,laundry,13.7895398,100.5887429,Bangkok,Thailand,,,,,,,,,https://www.openstreetmap.org/node/2510005841
2510005849,Unnamed,laundry,13.7896317,100.5887478,Bangkok,Thailand,,,,,,,,,https://www.openstreetmap.org/node/2510005849
2511160345,Preme,hostel,13.7354055,100.5634798,Bangkok,Thailand,,,,,,,,,https://www.openstreetmap.org/node/2511160345
2653354678,Lilly's Hostel,hostel,13.7632352,100.4991595,Bangkok,Thailand,,091 104 3445,,24/7,wlan,,,,https://www.openstreetmap.org/node/2653354678
2688454909,Asok Monti Hostel,hostel,13.738739,100.5602646,Bangkok,Thailand,,,,,,,,,https://www.openstreetmap.org/node/2688454909
2722948109,Unnamed,gym,13.8812072,100.7100497,Bangkok,Thailand,,,,,,,,,https://www.openstreetmap.org/node/2722948109
2726968424,Yim Huai Khwang Hostel,hostel,13.778482,100.5749978,Bangkok,Thailand,ถนนประชาราษฎร์บำเพ็ญ,+66 2 1186038,http://www.yimhuaikhwang.com,,,yes,Yim Huai Khwang,,https://www.openstreetmap.org/node/2726968424
2768659657,Farm Wille,wifi_cafe,13.635595,100.619339,Bangkok,Thailand,Soi Wat San Samrong,,,06:00-19:00,wlan,,,,https://www.openstreetmap.org/node/2768659657
2893548580,Siam Journey Guesthouse,hostel,13.755314,100.531298,Bangkok,Thailand,ซอยน้อมจิตต์,+66 2 162 0620,http://www.siamjourneyguesthouse.com/,,,,,,https://www.openstreetmap.org/node/2893548580
2894977953,Quest Cafe,wifi_cafe,13.7553631,100.5327535,Bangkok,Thailand,Phaya Thai Road,+66 26121442,http://www.questcafebkk.com/,06:00-22:00,wlan,,,,https://www.openstreetmap.org/node/2894977953
2938354801,Bed Bangkok Hostel,hostel,13.7442165,100.5509582,Bangkok,Thailand,Sukhumvit Road Soi 1,,http://www.bedbangkok.com,,,,,,https://www.openstreetmap.org/node/2938354801
2944024510,Unnamed,library,13.7194203,100.5427206,Bangkok,Thailand,,,,,,,,,https://www.openstreetmap.org/node/2944024510
2989071780,Starbucks,wifi_cafe,13.7069329,100.5220758,Bangkok,Thailand,,,https://www.starbucks.com/,,wlan,,,Starbucks,https://www.openstreetmap.org/node/2989071780
2995448632,H2 Hostel,hostel,13.7136777,100.5268223,Bangkok,Thailand,,,https://www.h2bkk.com/,,,,,,https://www.openstreetmap.org/node/2995448632
3038776935,ใหม่ ซักอบรีด,laundry,13.6730792,100.4381353,Bangkok,Thailand,,,,,,,,,https://www.openstreetmap.org/node/3038776935
3038796988,แม่ขวัญ ซักอบรีด,laundry,13.6711287,100.4382066,Bangkok,Thailand,,,,,,,,,https://www.openstreetmap.org/node/3038796988
3076015775,Starbucks,wifi_cafe,13.7400132,100.5244511,Bangkok,Thailand,,,https://www.starbucks.com/,,wlan,,,Starbucks,https://www.openstreetmap.org/node/3076015775
3146871949,Tower Club Lounge,wifi_cafe,13.7216829,100.5171239,Bangkok,Thailand,ถนนสีลม,+6626249555,https://www.lebua.com/tower-club/pages/tower-club-facilities,06:00 - 18:00,wlan,yes,,,https://www.openstreetmap.org/node/3146871949
3150130029,Born Free Hostel,hostel,13.7617611,100.4979867,Bangkok,Thailand,Chakrapong Road,,,,,,Born Free,,https://www.openstreetmap.org/node/3150130029
3150130030,Feel at Home Backpackers,hostel,13.7618194,100.4980703,Bangkok,Thailand,,,,,,,,,https://www.openstreetmap.org/node/3150130030
3150130035,Born Free Hostel,hostel,13.7643609,100.4999041,Bangkok,Thailand,Samsen Soi 6,,https://www.bornfreeadventures.com/,,,,Born Free,,https://www.openstreetmap.org/node/3150130035
3174305671,Meow Meow,wifi_cafe,13.7460543,100.5624781,Bangkok,Thailand,,,,,wlan,,,,https://www.openstreetmap.org/node/3174305671
3200611806,Three of a Kind,hostel,13.7232864,100.5230082,Bangkok,Thailand,,,,,,,,,https://www.openstreetmap.org/node/3200611806
3200611807,Unnamed,hostel,13.7325125,100.745715,Bangkok,Thailand,,,,,,,,,https://www.openstreetmap.org/node/3200611807
3216938371,True Coffee,wifi_cafe,13.7195505,100.5847566,Bangkok,Thailand,,,,"Mo-Fr 08:00-18:00, Sa-Su 09:00-18:00",yes,,,,https://www.openstreetmap.org/node/3216938371
3244557097,Starbucks,wifi_cafe,13.7379474,100.5586902,Bangkok,Thailand,,,https://www.starbucks.co.th/,,wlan,,,Starbucks,https://www.openstreetmap.org/node/3244557097
3246091645,Starbucks,wifi_cafe,13.7264429,100.5854862,Bangkok,Thailand,,,https://www.starbucks.com/,,wlan,,,Starbucks,https://www.openstreetmap.org/node/3246091645
3248639785,Sip A Cup,wifi_cafe,13.6844288,100.6123389,Bangkok,Thailand,,,,,yes,,,,https://www.openstreetmap.org/node/3248639785
3251640378,Starbucks,wifi_cafe,13.7579272,100.5657685,Bangkok,Thailand,,,https://www.starbucks.co.th/,Mo-Su 07:00-21:00,wlan,,,Starbucks,https://www.openstreetmap.org/node/3251640378
3251663419,Starbucks,wifi_cafe,13.7193108,100.584748,Bangkok,Thailand,,,www.starbuckscard.in.th,,wlan,,,Starbucks,https://www.openstreetmap.org/node/3251663419
3251663426,Starbucks,wifi_cafe,13.7439768,100.5459136,Bangkok,Thailand,,,https://www.starbucks.co.th/,Mo-Su 11:00-22:00,wlan,,,Starbucks,https://www.openstreetmap.org/node/3251663426
3251663427,ดีน แอนด์ เดลูกา,wifi_cafe,13.7441853,100.5460209,Bangkok,Thailand,,,,11:00-22:00,wlan,,,,https://www.openstreetmap.org/node/3251663427
3251663428,ปอล,wifi_cafe,13.7437007,100.5472601,Bangkok,Thailand,,,,11:00-22:00,wlan,,,,https://www.openstreetmap.org/node/3251663428
3251663434,แฮร์รอดส์,wifi_cafe,13.7439039,100.545978,Bangkok,Thailand,,,,,wlan,,,,https://www.openstreetmap.org/node/3251663434
3251675162,Starbucks,wifi_cafe,13.7436329,100.5443097,Bangkok,Thailand,,,https://www.starbucks.co.th/,Mo-Fr 07:00-21:30; Sa-Su 07:30-21:00,wlan,,,Starbucks,https://www.openstreetmap.org/node/3251675162
3251684946,Starbucks,wifi_cafe,13.7440701,100.5413608,Bangkok,Thailand,,,https://www.starbucks.co.th/,,wlan,,,Starbucks,https://www.openstreetmap.org/node/3251684946
3255004461,Monomer Hostel,hostel,13.7529189,100.5311982,Bangkok,Thailand,Soi Phetchaburi16,,,,,,,,https://www.openstreetmap.org/node/3255004461
3256556870,Baan Nampetch Hostel,hostel,13.7611311,100.5016091,Bangkok,Thailand,,,,,,,,,https://www.openstreetmap.org/node/3256556870
3272167257,Bed Station Hostel,hostel,13.7532575,100.5311223,Bangkok,Thailand,Soi Phetchaburi16,,,,yes,,,,https://www.openstreetmap.org/node/3272167257
3272170166,Starbucks,wifi_cafe,13.7556212,100.5327043,Bangkok,Thailand,ถนนพญาไท,+66 84 438 7490,https://www.starbucks.co.th/,Mo-Su 06:30-21:00,wlan,,,Starbucks,https://www.openstreetmap.org/node/3272170166
3323058261,The city @ Fifty,hostel,13.7064806,100.5923303,Bangkok,Thailand,,006627428066,,,wlan,no,,,https://www.openstreetmap.org/node/3323058261
3324207867,Pridi Hostel,hostel,13.731417,100.5967254,Bangkok,Thailand,,,,,,,,,https://www.openstreetmap.org/node/3324207867
3334483897,Phra Kanong Hostel,hostel,13.7145901,100.5939447,Bangkok,Thailand,,,,,,,,,https://www.openstreetmap.org/node/3334483897
3431296254,Starbucks,wifi_cafe,13.6898881,100.647371,Bangkok,Thailand,,,https://www.starbucks.com/,06:30-20:00,wlan,yes,,Starbucks,https://www.openstreetmap.org/node/3431296254
3436443888,laundry 30b/k,laundry,13.7590844,100.4994382,Bangkok,Thailand,,,,,,,,,https://www.openstreetmap.org/node/3436443888
3444472377,สตาร์บัคส์,wifi_cafe,13.7295953,100.5691937,Bangkok,Thailand,,,www.starbuckscard.in.th,,wlan,,,Starbucks,https://www.openstreetmap.org/node/3444472377
3444472378,สตาร์บัคส์,wifi_cafe,13.7310974,100.5695344,Bangkok,Thailand,,,www.starbuckscard.in.th,,wlan,,,Starbucks,https://www.openstreetmap.org/node/3444472378
3444472379,Starbucks,wifi_cafe,13.7319723,100.5761118,Bangkok,Thailand,,,https://www.starbucks.com/,,wlan,,,Starbucks,https://www.openstreetmap.org/node/3444472379
3444472380,สตาร์บัคส์,wifi_cafe,13.7327973,100.5304151,Bangkok,Thailand,,,www.starbuckscard.in.th,,wlan,,,,https://www.openstreetmap.org/node/3444472380
3444472381,Starbucks,wifi_cafe,13.734743,100.5767158,Bangkok,Thailand,,,www.starbuckscard.in.th,,wlan,,,Starbucks,https://www.openstreetmap.org/node/3444472381
3444472382,Starbucks,wifi_cafe,13.7357031,100.5628939,Bangkok,Thailand,,,https://www.starbucks.co.th/,,wlan,limited,,Starbucks,https://www.openstreetmap.org/node/3444472382
3444472383,สตาร์บัคส์,wifi_cafe,13.7355444,100.545904,Bangkok,Thailand,,,www.starbuckscard.in.th,,wlan,,,Starbucks,https://www.openstreetmap.org/node/3444472383
3444472384,Starbucks,wifi_cafe,13.7377291,100.5601586,Bangkok,Thailand,,,https://www.starbucks.co.th/,,wlan,,,Starbucks,https://www.openstreetmap.org/node/3444472384
3444472385,สตาร์บัคส์,wifi_cafe,13.7390542,100.5479093,Bangkok,Thailand,,,www.starbuckscard.in.th,,wlan,,,Starbucks,https://www.openstreetmap.org/node/3444472385
3444472386,Starbucks,wifi_cafe,13.7418012,100.5539926,Bangkok,Thailand,,,https://www.starbucks.co.th/,,wlan,,,Starbucks,https://www.openstreetmap.org/node/3444472386
3444472387,Starbucks,wifi_cafe,13.7424509,100.552664,Bangkok,Thailand,,,https://www.starbucks.co.th/,,wlan,,,Starbucks,https://www.openstreetmap.org/node/3444472387
3444472388,สตาร์บัคส์,wifi_cafe,13.7434881,100.5567802,Bangkok,Thailand,,,https://www.starbucks.co.th/,,wlan,,,Starbucks,https://www.openstreetmap.org/node/3444472388
3444472389,Starbucks,wifi_cafe,13.744106,100.544667,Bangkok,Thailand,,,www.starbuckscard.in.th,,wlan,,,Starbucks,https://www.openstreetmap.org/node/3444472389
3444472390,Starbucks,wifi_cafe,13.7443609,100.5296519,Bangkok,Thailand,,,www.starbuckscard.in.th,"Mo-Su,PH 10:00-22:00",wlan,,,Starbucks,https://www.openstreetmap.org/node/3444472390
3444472391,Starbucks,wifi_cafe,13.7459496,100.5397944,Bangkok,Thailand,,,https://www.starbucks.co.th/,,wlan,,,Starbucks,https://www.openstreetmap.org/node/3444472391
3444474794,Starbucks,wifi_cafe,13.7459166,100.53532,Bangkok,Thailand,,,https://www.starbucks.co.th/,,wlan,,,Starbucks,https://www.openstreetmap.org/node/3444474794
3444474795,Starbucks,wifi_cafe,13.7461339,100.5331008,Bangkok,Thailand,,,www.starbuckscard.in.th,,wlan,,,Starbucks,https://www.openstreetmap.org/node/3444474795
3444474797,Starbucks,wifi_cafe,13.7463025,100.5443957,Bangkok,Thailand,,,https://www.starbucks.co.th/,"Mo-Fr 06:30-20:00; Sa,Su 07:00-19:00",wlan,,,Starbucks,https://www.openstreetmap.org/node/3444474797
3444474798,Starbucks,wifi_cafe,13.7464936,100.5315316,Bangkok,Thailand,,,www.starbuckscard.in.th,,wlan,,,Starbucks,https://www.openstreetmap.org/node/3444474798
3444474799,Starbucks,wifi_cafe,13.7465837,100.5346123,Bangkok,Thailand,,,http://www.starbuckscard.in.th,,wlan,,,Starbucks,https://www.openstreetmap.org/node/3444474799
3444474800,Starbucks,wifi_cafe,13.7469735,100.534524,Bangkok,Thailand,,,www.starbuckscard.in.th,,wlan,,,Starbucks,https://www.openstreetmap.org/node/3444474800
3444474801,Starbucks,wifi_cafe,13.7475045,100.5398943,Bangkok,Thailand,,,www.starbuckscard.in.th,,wlan,,,Starbucks,https://www.openstreetmap.org/node/3444474801
3444474802,Starbucks,wifi_cafe,13.7497604,100.5407025,Bangkok,Thailand,,,https://www.starbucks.co.th/,,wlan,,,Starbucks,https://www.openstreetmap.org/node/3444474802
3444474803,Starbucks,wifi_cafe,13.7511914,100.538077,Bangkok,Thailand,,,www.starbuckscard.in.th,,wlan,,,Starbucks,https://www.openstreetmap.org/node/3444474803
3479102803,Hollys Coffee,wifi_cafe,13.7385763,100.5584747,Bangkok,Thailand,,,,24/7,wlan,,,,https://www.openstreetmap.org/node/3479102803
3534442193,Back Home Backpackers,hostel,13.7632295,100.4993838,Bangkok,Thailand,,,,,,,,,https://www.openstreetmap.org/node/3534442193
3536107977,Hostel Jade Sada,hostel,13.7631265,100.4991169,Bangkok,Thailand,,,,,,,,,https://www.openstreetmap.org/node/3536107977
3536107980,La Rivetta Bangkok,hostel,13.7631181,100.4993204,Bangkok,Thailand,,,,,,,,,https://www.openstreetmap.org/node/3536107980
3593895305,honey bear bistro,wifi_cafe,13.7249035,100.5872474,Bangkok,Thailand,,,,,wlan,,,,https://www.openstreetmap.org/node/3593895305
3593895307,Ma:D Social Entepreneurs Hub,coworking,13.72458,100.5873074,Bangkok,Thailand,,,,,,,,,https://www.openstreetmap.org/node/3593895307
3626112297,ศูนย์บริการสาธารณสุข 40 สาขาบางแคเหนือ,hostel,13.7050409,100.3845052,Bangkok,Thailand,,,,,,,,,https://www.openstreetmap.org/node/3626112297
3717247498,Mile Map Hostel,hostel,13.7237779,100.5229274,Bangkok,Thailand,,,,,,,,,https://www.openstreetmap.org/node/3717247498
3717249981,Starbucks,wifi_cafe,13.7869569,100.5752,Bangkok,Thailand,,,https://www.starbucks.com/,,wlan,,,Starbucks,https://www.openstreetmap.org/node/3717249981
3720176452,Starbucks,wifi_cafe,13.7662515,100.5696649,Bangkok,Thailand,,,https://www.starbucks.co.th/,,wlan,,,Starbucks,https://www.openstreetmap.org/node/3720176452
3724152154,J.N. Dormitory,hostel,13.7826282,100.5726136,Bangkok,Thailand,,,,,,,,,https://www.openstreetmap.org/node/3724152154
3725623063,Unnamed,hostel,13.739673,100.5651923,Bangkok,Thailand,,+66 21171012,,Mo-Su 07:00-23:00,wlan,,,,https://www.openstreetmap.org/node/3725623063
3753318363,La Bonne,wifi_cafe,13.7862317,100.5727444,Bangkok,Thailand,,,,,wlan,,,,https://www.openstreetmap.org/node/3753318363
3860265982,Fitness First,gym,13.7375756,100.5604886,Bangkok,Thailand,,,,"Mo-Fr 06:00-22:00; Sa,Su 08:00-21:00",,no,,Fitness First,https://www.openstreetmap.org/node/3860265982
3877799793,Blocks,hostel,13.738364,100.557686,Bangkok,Thailand,,,,,,,,,https://www.openstreetmap.org/node/3877799793
3887488393,Rest Inn,hostel,13.7612278,100.4969858,Bangkok,Thailand,,,,,,,,,https://www.openstreetmap.org/node/3887488393
3894724840,Wayla Hostel,hostel,13.7666356,100.5007815,Bangkok,Thailand,,,,,,,,,https://www.openstreetmap.org/node/3894724840
3894725361,Like Italy Cafe-Bakery,wifi_cafe,13.7625064,100.4942201,Bangkok,Thailand,,,,Mo-Su 07:00-17:00,wlan,,,,https://www.openstreetmap.org/node/3894725361
3894809103,Coco Chaophraya,wifi_cafe,13.7638129,100.4945946,Bangkok,Thailand,,02 62922115,,,wlan,,,,https://www.openstreetmap.org/node/3894809103
3915727337,ห้องสมุดสื่อสมาคมฝรั่งเศส,library,13.7296233,100.548227,Bangkok,Thailand,,,,,,,,,https://www.openstreetmap.org/node/3915727337
3923480026,True Fitness,gym,13.7356931,100.5615697,Bangkok,Thailand,,,http://www.truefitness.co.th/en/facilities/exchange-tower,,,,,,https://www.openstreetmap.org/node/3923480026
3933649924,Samsen 360 Hostel,hostel,13.7628178,100.5010248,Bangkok,Thailand,Samsen Road,,,,,,,,https://www.openstreetmap.org/node/3933649924
3965355804,Udee Bangkok,hostel,13.7928814,100.5455479,Bangkok,Thailand,ประดิพัทธิ์ 19,,,,,,,,https://www.openstreetmap.org/node/3965355804
4021629634,@Hua Lamphong Hostel,hostel,13.7372756,100.5168899,Bangkok,Thailand,Rama 4 Rd,+66 2 639 1925,http://www.at-hualamphong.com,,,,,,https://www.openstreetmap.org/node/4021629634
4030892008,Cafe Siriwan,wifi_cafe,13.7421032,100.5005737,Bangkok,Thailand,Chakphet Rd.,,,,yes,,,,https://www.openstreetmap.org/node/4030892008
4052460126,In A Box,hostel,13.7558817,100.5337246,Bangkok,Thailand,"Soi Kolit, Phayathai Road",,https://in-a-box-hostel.bangkokthaihotels.com/en/,,,,,,https://www.openstreetmap.org/node/4052460126
4084646015,T-boutique Hostel,hostel,13.7381408,100.5205475,Bangkok,Thailand,,,,,,,,,https://www.openstreetmap.org/node/4084646015
4102210692,Life Ratchadapisek,hostel,13.782851,100.5745199,Bangkok,Thailand,ถนนรัชดาภิเษก,,,,,,,,https://www.openstreetmap.org/node/4102210692
4104680089,หมู่บ้านพฤษา56 สุขสวัสข์,hostel,13.5898607,100.5657114,Bangkok,Thailand,ซอยหมู่บ้านร่มเย็นนิเวศน์,,,,,,,,https://www.openstreetmap.org/node/4104680089
4107052789,Blissotel Ratchada,hostel,13.7622381,100.5648773,Bangkok,Thailand,Ratchadapsiek Soi 3,02 641 1694,,,,,,,https://www.openstreetmap.org/node/4107052789
4119132189,Casa Lapin x26,wifi_cafe,13.7267425,100.5699421,Bangkok,Thailand,สุขุมวิท 26,,,Mo-Su 07:30-22:00,wlan,,,,https://www.openstreetmap.org/node/4119132189
4126724289,หมู่บ้านพฤษา 56 สุขสวัสข์,hostel,13.5898344,100.5660086,Bangkok,Thailand,ซอยหมู่บ้านร่มเย็นนิเวศน์,,,,,,,,https://www.openstreetmap.org/node/4126724289
4133011589,ลุมพินีวิลล์ อ่อนนุช-ลาดกระบัง 2,hostel,13.7211321,100.7040365,Bangkok,Thailand,,,,,,,,,https://www.openstreetmap.org/node/4133011589
4142153889,Kamin Bird Hostel,hostel,13.7729867,100.5717948,Bangkok,Thailand,,,,,wlan,,,,https://www.openstreetmap.org/node/4142153889
4148645289,Here Hostel,hostel,13.7556608,100.5035135,Bangkok,Thailand,,+66909877438,https://www.herehostel.com/,Mo-Su 07:00-21:00,wlan,,,,https://www.openstreetmap.org/node/4148645289
4149696289,บ้านพฤษา56 สุขสวัสข์,hostel,13.5898016,100.5658633,Bangkok,Thailand,ซอยหมู่บ้านร่มเย็นนิเวศน์,,,,,,,,https://www.openstreetmap.org/node/4149696289
4150545291,Laundry,laundry,13.7627281,100.5391093,Bangkok,Thailand,,,,,,,,,https://www.openstreetmap.org/node/4150545291
4164247289,Tia Thai Hostel,hostel,13.7708,100.5661812,Bangkok,Thailand,,,,,,,,,https://www.openstreetmap.org/node/4164247289
4178906812,Pilates Station Bangkok,gym,13.7356043,100.5628294,Bangkok,Thailand,ถนนสุขุมวิท ซอย23,+6626617468,https://www.pilatesstation.co.th/,,wlan,,,,https://www.openstreetmap.org/node/4178906812
4181473477,Bangkok Story,hostel,13.7359782,100.5126385,Bangkok,Thailand,,,https://www.facebook.com/BangkokStoryHostel/,,,,,,https://www.openstreetmap.org/node/4181473477
4192190290,หมู่บ้าน พฤษา56 สุขสวัสข์,hostel,13.5898319,100.5657816,Bangkok,Thailand,สุขสวัสดิ์,,,,,,,,https://www.openstreetmap.org/node/4192190290
4196949697,The Oasis Hostel Bangkok,hostel,13.7626507,100.5012908,Bangkok,Thailand,Samsen Soi 2,+66 97 006 3099,,,,,,,https://www.openstreetmap.org/node/4196949697
4198101406,Artis Coffee,wifi_cafe,13.7351382,100.5626169,Bangkok,Thailand,,,,06:30-19:00,wlan,,,,https://www.openstreetmap.org/node/4198101406
4203330189,nothing ,laundry,13.6849681,100.6218732,Bangkok,Thailand,,,,,,,,,https://www.openstreetmap.org/node/4203330189
4206062989,First Inn Bangkok,hostel,13.7084182,100.5987267,Bangkok,Thailand,,,,,wlan,,,,https://www.openstreetmap.org/node/4206062989
4216702489,Unnamed,hostel,13.7925386,100.5921843,Bangkok,Thailand,,,,,,,,,https://www.openstreetmap.org/node/4216702489
4220793491,Warm White Hostel,hostel,13.7617043,100.4975686,Bangkok,Thailand,,020408684,,,wlan,,,,https://www.openstreetmap.org/node/4220793491
4221789924,Khaosan lovers hostel,hostel,13.7605423,100.5018184,Bangkok,Thailand,,,,,,,,,https://www.openstreetmap.org/node/4221789924
4223080296,Unnamed,laundry,13.7604533,100.4965434,Bangkok,Thailand,,,,,,,,,https://www.openstreetmap.org/node/4223080296
4226198391,JC House,hostel,13.7624268,100.5038659,Bangkok,Thailand,ถนนประชาธิปไตย,,,,wlan,,,,https://www.openstreetmap.org/node/4226198391
4227543789,เบลล่า บิสโตร์ เฮ้าส์,wifi_cafe,13.7301361,100.5148374,Bangkok,Thailand,เจริญกรุง 30,,,Mo-Su 07:00-16:00,yes,,,,https://www.openstreetmap.org/node/4227543789
4231228397,ดอนเจดีย์ แมนชั่น,hostel,13.8760296,100.5161053,Bangkok,Thailand,,,,,,,,,https://www.openstreetmap.org/node/4231228397
4231228398,Da condo,hostel,13.8723852,100.5176368,Bangkok,Thailand,,,,,,,,,https://www.openstreetmap.org/node/4231228398
4232974189,Fun Wan Hostel Bangkok,hostel,13.7434006,100.5560552,Bangkok,Thailand,ถนนสุขุมวิท ซอย 11,,,,wlan,,Fun Wan Hostel Bangkok,,https://www.openstreetmap.org/node/4232974189
4238653790,คอนโดเดอะคี,hostel,13.7135108,100.4650374,Bangkok,Thailand,,,,,,,,,https://www.openstreetmap.org/node/4238653790
4244512392,Niras Bankoc Cultural Hostel,hostel,13.7523565,100.5044639,Bangkok,Thailand,ถนนมหาไชย,,,,,no,,,https://www.openstreetmap.org/node/4244512392
4267994894,Hor Hidden Café ,wifi_cafe,13.7793302,100.5431359,Bangkok,Thailand,40/2,+66 82 670 5000,www.facebook.com/horhiddencafe,We-Mo 10:00-22:30,wlan,,,,https://www.openstreetmap.org/node/4267994894
4270054614,กันซักรีด,laundry,13.8128923,100.4150572,Bangkok,Thailand,ซอยเพิ่มสุข,+66634466998,,Mo-Su 09:00-21:00,,,หอมนิรันดร์ กันซักรีด,,https://www.openstreetmap.org/node/4270054614
4270871690,K.D.M Hostel,hostel,13.9228476,100.596954,Bangkok,Thailand,,,,,,,,,https://www.openstreetmap.org/node/4270871690
4275543293,HI Mid Bangkok,hostel,13.7643275,100.54067,Bangkok,Thailand,ถนนราชวิถี,026445744,Facebook.com/Midbangkok,24/7,wlan,,,,https://www.openstreetmap.org/node/4275543293
4280539895,fan,hostel,13.7427914,100.5563786,Bangkok,Thailand,,,,,,,,,https://www.openstreetmap.org/node/4280539895
4283515289,Oh Bangkok Hostel,hostel,13.7628945,100.5016078,Bangkok,Thailand,,,,,,,,,https://www.openstreetmap.org/node/4283515289
4293989790,T&C Cafe,wifi_cafe,13.7931151,100.7138258,Bangkok,Thailand,ถนนรามคำแหง,,,Mo-Su 06:00-17:30,wlan,,,,https://www.openstreetmap.org/node/4293989790
4316590300,Baanbangkok,hostel,13.7634803,100.5001495,Bangkok,Thailand,Samsen Soi 4,020458100,facebook.com/baanboran,"Mo-Su 07:00-11:15, 19:45-00:00",wlan,,,,https://www.openstreetmap.org/node/4316590300
4317753490,หอพักกรีนสเปซ อพาร์ทเมนท์,hostel,13.828768,100.5593386,Bangkok,Thailand,ซอยวิภาวดี 36 แยก 2,,,,,,,,https://www.openstreetmap.org/node/4317753490
4325275091,สุขเหมือน แมนชั่น,hostel,13.8367921,100.7185609,Bangkok,Thailand,ถนนหทัยราษฎร์,0945647776,http://www.facebook.com/sukmuanmansion,Mo-Su 08:00-18:00,wlan,,สุขเหมือน,,https://www.openstreetmap.org/node/4325275091
4326389389,Laundry Service,laundry,13.7338746,100.51376,Bangkok,Thailand,,,,,,,,,https://www.openstreetmap.org/node/4326389389
4330645492,Lamontee,wifi_cafe,13.7805789,100.5307567,Bangkok,Thailand,,,,,wlan,,,,https://www.openstreetmap.org/node/4330645492
4332572753,อุทยานทอง,hostel,13.9120423,100.5302217,Bangkok,Thailand,,,,,,,,,https://www.openstreetmap.org/node/4332572753
4332604191,Arayan ​Sweet​ Suie,hostel,13.7855383,100.565965,Bangkok,Thailand,Inthamara 34,,,,,,,,https://www.openstreetmap.org/node/4332604191
4333544742,Tearoom in DSpace,wifi_cafe,13.7550114,100.4984631,Bangkok,Thailand,,,,,wlan,,,,https://www.openstreetmap.org/node/4333544742
4339753604,Machi machi,wifi_cafe,13.7706821,100.5050652,Bangkok,Thailand,ถนนพิษณุโลก,,,Mo-Fr 08:00-18:00,wlan,,,machi machi,https://www.openstreetmap.org/node/4339753604
4340816890,The Overstay,hostel,13.7755515,100.4840855,Bangkok,Thailand,ถนนจรัญสนิทวงศ์,02 883 4836,https://www.theoverstay.com/,24/7,wlan,,,,https://www.openstreetmap.org/node/4340816890
4345171289,81แมนชั่น,hostel,13.7091587,100.6050613,Bangkok,Thailand,ซอย สุขุมวิท77,,,24/7,,,,,https://www.openstreetmap.org/node/4345171289
4347024082,ศูนย์สนเทศและหอสมุด,library,13.8711992,100.5513287,Bangkok,Thailand,,,,,,,,,https://www.openstreetmap.org/node/4347024082
4349285791,New moves,gym,13.7440848,100.5419823,Bangkok,Thailand,,,,,,,,,https://www.openstreetmap.org/node/4349285791
4350367489,Khao San Rainbow Hostel,hostel,13.7594456,100.4953087,Bangkok,Thailand,,,,,,,,,https://www.openstreetmap.org/node/4350367489
4352783098,New Phiman Riverview,hostel,13.767029,100.4976323,Bangkok,Thailand,,,,,,,,,https://www.openstreetmap.org/node/4352783098
4358995490,ST Mansion,hostel,13.767534,100.5489225,Bangkok,Thailand,ซอยรวมมิตร,021169557,,Mo-Su 08:00-18:00,,,0615678554,,https://www.openstreetmap.org/node/4358995490
4362242347,Starbucks Coffee สาขา The X-Place,wifi_cafe,13.6944,100.4079747,Bangkok,Thailand,ถนนกาญจนาภิเษก (ด้านตะวันตก) (ทางขนาน),,,,yes,,,,https://www.openstreetmap.org/node/4362242347
4367330089,Been Hostel Ratchathewi,hostel,13.7514118,100.5302134,Bangkok,Thailand,,,,,,,,,https://www.openstreetmap.org/node/4367330089
4369954799,Unnamed,hostel,13.7226753,100.5242055,Bangkok,Thailand,ถนนปั้น,,,,wlan,,,,https://www.openstreetmap.org/node/4369954799
4371551893,Unnamed,wifi_cafe,13.6875346,100.6075175,Bangkok,Thailand,ซอยสุขุมวิท 64,,,,wlan,,,,https://www.openstreetmap.org/node/4371551893
4382581892,Unnamed,hostel,13.7596573,100.4972216,Bangkok,Thailand,,,,,,no,,,https://www.openstreetmap.org/node/4382581892
4391369989,สุดา เถือนเมือง,hostel,13.8761573,100.499798,Bangkok,Thailand,,,,,,,,,https://www.openstreetmap.org/node/4391369989
4391405090,ฐาปกรณ์ nt 110,gym,13.8807211,100.4970773,Bangkok,Thailand,,,,,,,,,https://www.openstreetmap.org/node/4391405090
4393185289,Second Home Hostel,hostel,13.7615131,100.4973877,Bangkok,Thailand,,,,,,,,,https://www.openstreetmap.org/node/4393185289
4402572689,Unnamed,wifi_cafe,13.7853684,100.7054359,Bangkok,Thailand,,,,Mo-Su 06:00-20:00,wlan,,,,https://www.openstreetmap.org/node/4402572689
4406517292,ซิน ไฉ ฮั้ว,laundry,13.7189116,100.5973814,Bangkok,Thailand,,,,,,,,,https://www.openstreetmap.org/node/4406517292
4410717693,ไล-บรา-รี่,wifi_cafe,13.7417647,100.6260421,Bangkok,Thailand,หมู่บ้านเสรี,+6627183993,,,wlan,,,,https://www.openstreetmap.org/node/4410717693
4411212890,โซวเฮงไถ่,wifi_cafe,13.7336284,100.5119772,Bangkok,Thailand,,,https://m.facebook.com/Sohengtai/,Mo-Su 09:00-18:00,wlan,,,,https://www.openstreetmap.org/node/4411212890
4414403190,W18 Hostel,hostel,13.7268865,100.5331596,Bangkok,Thailand,ถนนคอนแวนต์,022335688,http://www.w18hostel.com,24/7,wlan,,Long Mao,,https://www.openstreetmap.org/node/4414403190
4417180289,Unnamed,hostel,13.8011497,100.3130876,Bangkok,Thailand,,,,,,,,,https://www.openstreetmap.org/node/4417180289
4426458589,Unnamed,hostel,13.762919,100.5034416,Bangkok,Thailand,"358/1 Wisut Kasat, Ban Phan Thom, Phra Nakhon, 10200 בנגקוק",,,,wlan,,,,https://www.openstreetmap.org/node/4426458589
4438510689,1989,hostel,13.7263993,100.5651972,Bangkok,Thailand,,,,,wlan,,,,https://www.openstreetmap.org/node/4438510689
4439853589,R.E.A.D Café,wifi_cafe,13.8413313,100.5717241,Bangkok,Thailand,,,,24/7,wlan,,,,https://www.openstreetmap.org/node/4439853589
4439987191,Unnamed,gym,13.7835647,100.546434,Bangkok,Thailand,,,,,,,,,https://www.openstreetmap.org/node/4439987191
4440020390,Unnamed,gym,13.788525,100.54833,Bangkok,Thailand,,,,,,,,,https://www.openstreetmap.org/node/4440020390
4440020490,Unnamed,gym,13.787227,100.53567,Bangkok,Thailand,,,,,,,,,https://www.openstreetmap.org/node/4440020490
4454228090,Unnamed,hostel,13.7055035,100.5107047,Bangkok,Thailand,,,https://www.booking.com/hotel/th/w-home-bangkok.html?aid=942273,,,,,,https://www.openstreetmap.org/node/4454228090
4460699218,Home16 Hostel 16 Sukhumvit,hostel,13.7296662,100.5603924,Bangkok,Thailand,ซอยสุขุมวิท 16,,,,wlan,,,,https://www.openstreetmap.org/node/4460699218
4460800311,Dirty B Fitness,gym,13.7366258,100.5619728,Bangkok,Thailand,,,,,,,,,https://www.openstreetmap.org/node/4460800311
4469063952,I Sabai,hostel,13.7396623,100.5655217,Bangkok,Thailand,,,,,,,,,https://www.openstreetmap.org/node/4469063952
4469638490,Unnamed,gym,13.9101315,100.5391301,Bangkok,Thailand,,,,,,,,,https://www.openstreetmap.org/node/4469638490
4470299295,Unnamed,hostel,13.7629111,100.4994089,Bangkok,Thailand,,,,,,,,,https://www.openstreetmap.org/node/4470299295
4473686679,Fitness First,gym,13.7371786,100.5713008,Bangkok,Thailand,,,,,,,,Fitness First,https://www.openstreetmap.org/node/4473686679
4475532651,One Day,hostel,13.7265419,100.5702981,Bangkok,Thailand,,,,,,,,,https://www.openstreetmap.org/node/4475532651
4483878559,Wanderlust Hostel,hostel,13.7183534,100.7624623,Bangkok,Thailand,Ladkrabang40,,,,,,,,https://www.openstreetmap.org/node/4483878559
4486660390,Unnamed,wifi_cafe,13.7446485,100.4922636,Bangkok,Thailand,Thanon Mahathat,,,Fr-We 10:00-20:00,wlan,,,,https://www.openstreetmap.org/node/4486660390
4496346290,Fresh Milk Coffe,wifi_cafe,13.7512487,100.5042867,Bangkok,Thailand,,,,,wlan,,,,https://www.openstreetmap.org/node/4496346290
4496869590,Wonderwall,wifi_cafe,13.7196396,100.5682424,Bangkok,Thailand,,,,,wlan,,,,https://www.openstreetmap.org/node/4496869590
4496875089,Strange Neighbours,wifi_cafe,13.7248711,100.5693891,Bangkok,Thailand,,,,,wlan,,,,https://www.openstreetmap.org/node/4496875089
4496875189,Wonderwall,wifi_cafe,13.7375501,100.567372,Bangkok,Thailand,Sukhumvit 31,,,Mo-Su 07:30-19:00,wlan,,,,https://www.openstreetmap.org/node/4496875189
4497432690,Unnamed,gym,13.7491497,100.4950908,Bangkok,Thailand,,,,,,,,,https://www.openstreetmap.org/node/4497432690
4505520290,Unitato Hostel,hostel,13.7760589,100.5453051,Bangkok,Thailand,พหลโยธิน ซอย 2,0925966105,http://Facebook.com,24/7,wlan,,,,https://www.openstreetmap.org/node/4505520290
4506043795,Unnamed,gym,13.7195359,100.5073021,Bangkok,Thailand,,,,,,,,,https://www.openstreetmap.org/node/4506043795
4520393190,อีฟซักรีด,laundry,13.7734059,100.4659887,Bangkok,Thailand,Bang Khun Non,0924576695,,Mo-Su 08:00-18:00,wlan,,เยาวพา (อีฟ),,https://www.openstreetmap.org/node/4520393190
4523367789,Unnamed,laundry,13.7625153,100.5419131,Bangkok,Thailand,,,,,,,,,https://www.openstreetmap.org/node/4523367789
4530291992,Unnamed,wifi_cafe,13.7330822,100.5872682,Bangkok,Thailand,,,,,wlan,,,,https://www.openstreetmap.org/node/4530291992
4532165469,Estate Café,wifi_cafe,13.7696921,100.5077584,Bangkok,Thailand,,,,,yes,,,,https://www.openstreetmap.org/node/4532165469
4539038791,Unnamed,wifi_cafe,13.7386921,100.5145679,Bangkok,Thailand,,,,,wlan,,,,https://www.openstreetmap.org/node/4539038791
4540866791,Unnamed,hostel,13.7620389,100.4943002,Bangkok,Thailand,,,,,,,,,https://www.openstreetmap.org/node/4540866791
4541209610,Unnamed,hostel,13.8780805,100.5944644,Bangkok,Thailand,,,,,,,,,https://www.openstreetmap.org/node/4541209610
4547470790,Wendy Laundry Shop,laundry,13.7482861,100.5297016,Bangkok,Thailand,,,,Mo-Su 08:00-20:00,,,,,https://www.openstreetmap.org/node/4547470790
4548928390,Unnamed,gym,13.7334544,100.5657305,Bangkok,Thailand,,+66 86 6239999,,We-Su 09:00-21:00,,,,,https://www.openstreetmap.org/node/4548928390
4553262993,Unnamed,wifi_cafe,13.7384629,100.5147485,Bangkok,Thailand,,,,,wlan,,,,https://www.openstreetmap.org/node/4553262993
4563386392,Jitti Gym (Muay Thai),gym,13.7988464,100.5739095,Bangkok,Thailand,,,,,,,,,https://www.openstreetmap.org/node/4563386392
4566445902,Unnamed,laundry,13.7308678,100.5149859,Bangkok,Thailand,,,,,,,,,https://www.openstreetmap.org/node/4566445902
4566943828,The Coffee Club,wifi_cafe,13.7052591,100.4907024,Bangkok,Thailand,,,,,wlan,,,The Coffee Club,https://www.openstreetmap.org/node/4566943828
4570580097,บ้านปริณดา,hostel,13.721466,100.786399,Bangkok,Thailand,ถนนลาดกระบัง,,,,,,,,https://www.openstreetmap.org/node/4570580097
4571639195,Wabisabi Huai Khwang,hostel,13.7760785,100.5817308,Bangkok,Thailand,ซอยประชาราษฎร์บำเพ็ญ 18,,,,,,,,https://www.openstreetmap.org/node/4571639195
4573230717,Baan Samyan,wifi_cafe,13.7324254,100.5279479,Bangkok,Thailand,,,,,wlan,,,,https://www.openstreetmap.org/node/4573230717
4574236990,ห้องนอนแอนตี้กับแสตมป์,hostel,13.7659004,100.6534926,Bangkok,Thailand,ถนนรามคำแหง,,,,,,,,https://www.openstreetmap.org/node/4574236990
4574256589,ห้องนอนแอนตี้กับแสคมป์,hostel,13.7659212,100.6535068,Bangkok,Thailand,ถนนรามคำแหง,,,,,,,,https://www.openstreetmap.org/node/4574256589
4580611302,Unnamed,wifi_cafe,13.9243536,100.5985902,Bangkok,Thailand,,,,,wlan,,,,https://www.openstreetmap.org/node/4580611302
4584070590,Phil Coffee,wifi_cafe,13.7245132,100.5827315,Bangkok,Thailand,"65/1 Sukhumvit 51 North Klongtan, Wattana Bangkok, 10110",0971254204,https://philscoffeecompany.com,Mo-Fr 08:00-16:30; Sa-Su 09:00-16:30,wlan,,,,https://www.openstreetmap.org/node/4584070590
4587209989,Unnamed,gym,13.7435383,100.5413779,Bangkok,Thailand,,,http://www.absoluteyou.com,,,,,,https://www.openstreetmap.org/node/4587209989
4589166621,Unnamed,hostel,13.7553478,100.5310172,Bangkok,Thailand,ซอยน้อมจิตต์,+66813763033,,24/7,wlan,,kuan,,https://www.openstreetmap.org/node/4589166621
4590676392,Unnamed,hostel,13.7604332,100.5015881,Bangkok,Thailand,,,,,,,,,https://www.openstreetmap.org/node/4590676392
4592385994,Unnamed,wifi_cafe,13.7399932,100.5027178,Bangkok,Thailand,,,,,wlan,,,,https://www.openstreetmap.org/node/4592385994
4593858289,Zleep63 Hostel,hostel,13.9232619,100.5969672,Bangkok,Thailand,,,,,wlan,,,,https://www.openstreetmap.org/node/4593858289
4596615990,ทีพีเอ็ม แมนชั่น,hostel,13.7640233,100.64152,Bangkok,Thailand,,,,,,,,,https://www.openstreetmap.org/node/4596615990
4597498694,Bean Samyan,wifi_cafe,13.7323888,100.5279844,Bangkok,Thailand,,,,,wlan,,,,https://www.openstreetmap.org/node/4597498694
4605890267,Loftel station hostel,hostel,13.7366173,100.5186255,Bangkok,Thailand,Trok La-o Rama,+66 83 017 0234,,,,,,,https://www.openstreetmap.org/node/4605890267
4605902933,Banthat Thong Hostel,hostel,13.7385596,100.5214896,Bangkok,Thailand,18Banthat thong Road Soi Soontornpimon,+66 63 824 9979,http://www.banthatthonghostel.com/,,,,,,https://www.openstreetmap.org/node/4605902933
4609386301,Unnamed,gym,13.9153361,100.5480643,Bangkok,Thailand,,,,,,,,,https://www.openstreetmap.org/node/4609386301
4613783389,Unnamed,hostel,13.7344291,100.521304,Bangkok,Thailand,,,,,,,,,https://www.openstreetmap.org/node/4613783389
4614428691,Unnamed,gym,13.9026317,100.5344046,Bangkok,Thailand,,,,,,,,,https://www.openstreetmap.org/node/4614428691
4616070090,Unnamed,laundry,13.7331252,100.564631,Bangkok,Thailand,,,,Mo-Su 10:00-20:00,,,,,https://www.openstreetmap.org/node/4616070090
4618133694,Unnamed,gym,13.9276423,100.5330865,Bangkok,Thailand,,,,,,,,,https://www.openstreetmap.org/node/4618133694
4618152694,Unnamed,gym,13.926156,100.5343341,Bangkok,Thailand,,,,,,,,,https://www.openstreetmap.org/node/4618152694
4618205889,Unnamed,gym,13.9221825,100.5378109,Bangkok,Thailand,,,,,,,,,https://www.openstreetmap.org/node/4618205889
4618205989,Unnamed,gym,13.9154282,100.5478178,Bangkok,Thailand,,,,,,,,,https://www.openstreetmap.org/node/4618205989
4618447701,Unnamed,gym,13.9034353,100.5288119,Bangkok,Thailand,,,,,,,,,https://www.openstreetmap.org/node/4618447701
4618460100,Unnamed,gym,13.9032684,100.5285704,Bangkok,Thailand,,,,,,,,,https://www.openstreetmap.org/node/4618460100
4618465899,Unnamed,laundry,13.90322,100.5275172,Bangkok,Thailand,,,,,,,,,https://www.openstreetmap.org/node/4618465899
4618465900,Unnamed,gym,13.9033741,100.5285636,Bangkok,Thailand,,,,,,,,,https://www.openstreetmap.org/node/4618465900
4618465901,Unnamed,gym,13.9033477,100.528814,Bangkok,Thailand,,,,,,,,,https://www.openstreetmap.org/node/4618465901
4618465903,Unnamed,gym,13.9031641,100.5288285,Bangkok,Thailand,,,,,,,,,https://www.openstreetmap.org/node/4618465903
4620468189,Unnamed,laundry,13.7976533,100.572895,Bangkok,Thailand,,,,,,,,,https://www.openstreetmap.org/node/4620468189
4620840892,Unnamed,gym,13.8286839,100.5686871,Bangkok,Thailand,,,,,,,,,https://www.openstreetmap.org/node/4620840892
4620843400,Unnamed,gym,13.8280393,100.5685188,Bangkok,Thailand,,,,,,,,,https://www.openstreetmap.org/node/4620843400
4621816589,Unnamed,laundry,13.9482049,100.5476498,Bangkok,Thailand,,,,,,,,,https://www.openstreetmap.org/node/4621816589
4623809990,Unnamed,laundry,13.9248363,100.5354974,Bangkok,Thailand,,,,,,,,,https://www.openstreetmap.org/node/4623809990
4623823591,Unnamed,gym,13.9231308,100.5369978,Bangkok,Thailand,,,,,,,,,https://www.openstreetmap.org/node/4623823591
4623861790,Unnamed,gym,13.9227353,100.5373622,Bangkok,Thailand,,,,,,,,,https://www.openstreetmap.org/node/4623861790
4623861791,Unnamed,gym,13.9251203,100.5352583,Bangkok,Thailand,,,,,,,,,https://www.openstreetmap.org/node/4623861791
4623869989,Unnamed,gym,13.9230226,100.5370915,Bangkok,Thailand,,,,,,,,,https://www.openstreetmap.org/node/4623869989
4623869990,Unnamed,gym,13.9230802,100.5370455,Bangkok,Thailand,,,,,,,,,https://www.openstreetmap.org/node/4623869990
4623869991,Unnamed,gym,13.9244064,100.5358812,Bangkok,Thailand,,,,,,,,,https://www.openstreetmap.org/node/4623869991
4636742290,Unnamed,laundry,13.7650814,100.4965462,Bangkok,Thailand,,,,,,,,,https://www.openstreetmap.org/node/4636742290
4637027308,Unnamed,gym,13.8436726,100.4408496,Bangkok,Thailand,,,,,,,,,https://www.openstreetmap.org/node/4637027308
4638909190,Unnamed,wifi_cafe,13.7467649,100.5031934,Bangkok,Thailand,,,,Tu-Su 09:00-19:00,wlan,,,,https://www.openstreetmap.org/node/4638909190
4639531189,Unnamed,gym,13.9190913,100.5460378,Bangkok,Thailand,,,,,,,,,https://www.openstreetmap.org/node/4639531189
4652936789,Unnamed,gym,13.7416493,100.5536353,Bangkok,Thailand,,,,,,,,,https://www.openstreetmap.org/node/4652936789
4654780195,Unnamed,laundry,13.9200573,100.5462164,Bangkok,Thailand,,,,,,,,,https://www.openstreetmap.org/node/4654780195
4654877090,Unnamed,hostel,13.7596669,100.4986799,Bangkok,Thailand,,,,,wlan,,,,https://www.openstreetmap.org/node/4654877090
4655302992,Luka Sathorn,wifi_cafe,13.7216404,100.5238927,Bangkok,Thailand,ถนนปั้น,+66918868717,https://lukabangkok.com,Mo-Su 08:00-18:00,wlan,,,,https://www.openstreetmap.org/node/4655302992
4665569195,Unnamed,gym,13.7285456,100.5356213,Bangkok,Thailand,,,,,,,,,https://www.openstreetmap.org/node/4665569195
4665596490,Unnamed,gym,13.7206698,100.5156534,Bangkok,Thailand,,,,,,,,,https://www.openstreetmap.org/node/4665596490
4665597489,Unnamed,gym,13.7208202,100.5152882,Bangkok,Thailand,,,,,,,,,https://www.openstreetmap.org/node/4665597489
4665599091,Unnamed,gym,13.7284527,100.5325291,Bangkok,Thailand,,,,,,,,,https://www.openstreetmap.org/node/4665599091
4672091389,Unnamed,gym,13.7493031,100.5632938,Bangkok,Thailand,,,,,,,,,https://www.openstreetmap.org/node/4672091389
4672223491,Unnamed,laundry,13.7397582,100.5530862,Bangkok,Thailand,,,,,,,,,https://www.openstreetmap.org/node/4672223491
4676398590,Unnamed,wifi_cafe,13.7231903,100.5208359,Bangkok,Thailand,,,,,wlan,,,,https://www.openstreetmap.org/node/4676398590
4684549802,baankerk,hostel,13.8921531,100.5803854,Bangkok,Thailand,,,,,,,,,https://www.openstreetmap.org/node/4684549802
4690178491,Unnamed,wifi_cafe,13.751361,100.531938,Bangkok,Thailand,,,,Tu-Fr 12:00-21:00; Sa-Su 11:00-21:00,wlan,,,,https://www.openstreetmap.org/node/4690178491
4698359494,ไทยทองอาพาร์ทเม้น,hostel,13.6885048,100.4251336,Bangkok,Thailand,,,,,,,,,https://www.openstreetmap.org/node/4698359494
4698817050,Unnamed,laundry,13.7562584,100.4972286,Bangkok,Thailand,,,,,,,,,https://www.openstreetmap.org/node/4698817050
4701477954,DK,laundry,13.9220118,100.6905616,Bangkok,Thailand,,,,08:00-20:00,,,,,https://www.openstreetmap.org/node/4701477954
4702955891,แฟลตพี่ตุ๊,hostel,13.9336481,100.5665922,Bangkok,Thailand,,,,,,,,,https://www.openstreetmap.org/node/4702955891
4707359789,Rungjaroen,hostel,13.7845215,100.4855252,Bangkok,Thailand,,,,,,,,,https://www.openstreetmap.org/node/4707359789
4715921389,Unnamed,hostel,13.9163154,100.598474,Bangkok,Thailand,"119/153 Choet Wutthakat Soi, Don Mueang, Bangkok Thung Si Kan, 10210, Thailandia",+66891159969,,,wlan,,,,https://www.openstreetmap.org/node/4715921389
4715971689,Unnamed,hostel,13.743987,100.55341,Bangkok,Thailand,,,,,,,,,https://www.openstreetmap.org/node/4715971689
4725964311,Nirvana Beyond Fitness,gym,13.744913,100.6175418,Bangkok,Thailand,,,,,,,,,https://www.openstreetmap.org/node/4725964311
4728593489,Au Bon Hostel,hostel,13.7547434,100.4970553,Bangkok,Thailand,,,,,wlan,,,,https://www.openstreetmap.org/node/4728593489
4728912489,Unnamed,wifi_cafe,13.7562725,100.4987315,Bangkok,Thailand,,,,Tu-Su 09:30-19:00,wlan,,,,https://www.openstreetmap.org/node/4728912489
4744950055,Sleep lab,hostel,13.75579,100.5334881,Bangkok,Thailand,,,,,,,,,https://www.openstreetmap.org/node/4744950055
4744952697,Vimarn hostel,hostel,13.7545846,100.5329648,Bangkok,Thailand,,,,,,yes,,,https://www.openstreetmap.org/node/4744952697
4744952708,DD hostel Bangkok,hostel,13.7630593,100.5433471,Bangkok,Thailand,,,,,,,,,https://www.openstreetmap.org/node/4744952708
4744955932,Laundry,laundry,13.7615121,100.5425767,Bangkok,Thailand,,,,,,,,,https://www.openstreetmap.org/node/4744955932
4747149423,Unnamed,hostel,13.7595394,100.4976072,Bangkok,Thailand,,,,,,,,,https://www.openstreetmap.org/node/4747149423
4748339224,By The Station Guesthouse,hostel,13.7484135,100.5282523,Bangkok,Thailand,,,,,,,,,https://www.openstreetmap.org/node/4748339224
4770289122,Unnamed,hostel,13.746954,100.5182769,Bangkok,Thailand,,,,,,,,,https://www.openstreetmap.org/node/4770289122
4782931322,Roynott Fitness Station,gym,13.7575122,100.6348301,Bangkok,Thailand,,,,,,,,,https://www.openstreetmap.org/node/4782931322
4783704867,Flying Cow,hostel,13.7648403,100.4997097,Bangkok,Thailand,,,,,,,,,https://www.openstreetmap.org/node/4783704867
4783790060,Vespa Cafe,wifi_cafe,13.7658147,100.4979314,Bangkok,Thailand,,,,,wlan,,,,https://www.openstreetmap.org/node/4783790060
4783966122,Unnamed,laundry,13.7508827,100.55679,Bangkok,Thailand,,,,,,,,,https://www.openstreetmap.org/node/4783966122
4786813424,Full House Apartments,hostel,13.7845965,100.4892242,Bangkok,Thailand,,,,,,,,,https://www.openstreetmap.org/node/4786813424
4787594323,Unnamed,wifi_cafe,13.7423789,100.5494875,Bangkok,Thailand,,,,,wlan,,,,https://www.openstreetmap.org/node/4787594323
4798636133,คาเฟ่ อเมซอน,wifi_cafe,13.9204367,100.6979721,Bangkok,Thailand,,,,Mo-Su 06:00-20:00,wlan,,,คาเฟ่ อเมซอน,https://www.openstreetmap.org/node/4798636133
4798638825,The Mixx Hostel,hostel,13.7596396,100.4974742,Bangkok,Thailand,รามบุตรี,,,,wlan,,,,https://www.openstreetmap.org/node/4798638825
4801119921,ดูดี 105 โฮสเทล แอนด์ คาเฟ่,hostel,13.6604431,100.6121066,Bangkok,Thailand,,097-276-8190,http://www.dodee105.com,Mo-Su 08:00-20:00,wlan,,,,https://www.openstreetmap.org/node/4801119921
4805101922,ห้องพักชิวๆ,hostel,13.7435323,100.4162383,Bangkok,Thailand,,,,,,,,,https://www.openstreetmap.org/node/4805101922
4806755922,Unnamed,hostel,13.92485,100.5993659,Bangkok,Thailand,Saranakhom 2 Alley,+66 81 170 3542,,,wlan,,,,https://www.openstreetmap.org/node/4806755922
4806926922,Unnamed,wifi_cafe,13.7119535,100.5955573,Bangkok,Thailand,,,,,wlan,,,,https://www.openstreetmap.org/node/4806926922
4808909921,ต้อม,hostel,13.5769967,100.4173131,Bangkok,Thailand,Bang Khun Thien Soi 25,,,,,,,,https://www.openstreetmap.org/node/4808909921
4809560569,Unnamed,wifi_cafe,13.7625512,100.634084,Bangkok,Thailand,,,,,wlan,,,,https://www.openstreetmap.org/node/4809560569
4817911124,All In One Hostel,hostel,13.7606448,100.4975489,Bangkok,Thailand,,,,,,,,,https://www.openstreetmap.org/node/4817911124
4827556825,Unnamed,hostel,13.7072076,100.6078435,Bangkok,Thailand,,,,,wlan,,,,https://www.openstreetmap.org/node/4827556825
4827665531,ริชเชส เรสซิเด้นซ์,hostel,13.8892681,100.6104785,Bangkok,Thailand,ถนนพหลโยธิน,,,,,,,,https://www.openstreetmap.org/node/4827665531
4836730723,Unnamed,hostel,13.7545588,100.5006488,Bangkok,Thailand,"Soi Tuek Din, Dinso Road",020330659,http://www.ohcompound.com,,wlan,,,,https://www.openstreetmap.org/node/4836730723
4842847721,Unnamed,wifi_cafe,13.7381222,100.5169161,Bangkok,Thailand,ถนนรองเมือง,,,Mo-Sa 08:00-20:00,wlan,,,,https://www.openstreetmap.org/node/4842847721
4865431792,Barani,hostel,13.7384264,100.5637615,Bangkok,Thailand,,,,,,no,,,https://www.openstreetmap.org/node/4865431792
4900795521,Unnamed,hostel,13.7545701,100.5006792,Bangkok,Thailand,Soi Tuek Din,02-033-0659,http://www.ohcompound.com,24/7,wlan,,,,https://www.openstreetmap.org/node/4900795521
4904520921,Unnamed,hostel,13.7254804,100.5103665,Bangkok,Thailand,"521 ซอย เจริญนคร Khwaeng Khlong Ton Sai, Khet Khlong San, Krung Thep Maha Nakhon 10600, Thailand",+66802052223,http://www.tinyhostels.com/petit-hostel/,24/7,wlan,,,,https://www.openstreetmap.org/node/4904520921
4932163326,Unnamed,wifi_cafe,13.7366849,100.5104508,Bangkok,Thailand,ถนนทรงวาด,,,,wlan,,,,https://www.openstreetmap.org/node/4932163326
4938206921,Unnamed,laundry,13.7518364,100.590079,Bangkok,Thailand,,,,,wlan,,,,https://www.openstreetmap.org/node/4938206921
4944995421,Unnamed,hostel,13.7408718,100.5110428,Bangkok,Thailand,ถนนผดุงด้าว,,,,wlan,,,,https://www.openstreetmap.org/node/4944995421
4951808221,Unnamed,hostel,13.7624982,100.5020961,Bangkok,Thailand,,,,,,,,,https://www.openstreetmap.org/node/4951808221
4957879593,Fun Cafe and Hostel,hostel,13.7336191,100.5163923,Bangkok,Thailand,,,,,,,,,https://www.openstreetmap.org/node/4957879593
4962327527,Unnamed,hostel,13.7595781,100.4974899,Bangkok,Thailand,,,,,,,,,https://www.openstreetmap.org/node/4962327527
4968899825,Domingo Hostel Donmuang,hostel,13.912598,100.5914599,Bangkok,Thailand,ถนนช่างอากาศอุทิศ,,,,,,,,https://www.openstreetmap.org/node/4968899825
4969529121,อาคารสำนักวิทยบริการและเทคโนโลยีสารสนเทศ,library,13.8202574,100.5763976,Bangkok,Thailand,ถนนรัชดาภิเษก,,,,,,,,https://www.openstreetmap.org/node/4969529121
4973585222,Unnamed,laundry,13.751846,100.526058,Bangkok,Thailand,,,,,,,,,https://www.openstreetmap.org/node/4973585222
4973603722,Unnamed,laundry,13.751706,100.5254653,Bangkok,Thailand,,,,,,,,,https://www.openstreetmap.org/node/4973603722
4978829423,Achi,wifi_cafe,13.7575311,100.6343404,Bangkok,Thailand,Soi 30,,,,wlan,,,,https://www.openstreetmap.org/node/4978829423
4978849622,Unnamed,wifi_cafe,13.7606269,100.6285404,Bangkok,Thailand,,,,,wlan,,,,https://www.openstreetmap.org/node/4978849622
4999122322,Unnamed,hostel,13.7597791,100.4986295,Bangkok,Thailand,รามบุตรี,,,,,,,,https://www.openstreetmap.org/node/4999122322
5038746223,Unnamed,hostel,13.7225979,100.5313166,Bangkok,Thailand,,,,,,,,,https://www.openstreetmap.org/node/5038746223
5055873521,แอสเซมบลี้ โฮสเทล,hostel,13.7072355,100.5090827,Bangkok,Thailand,Soi Charoen Krung 81,+66986244446,http://www.facebook.com/assemblyhostel,Mo-Su 08:30-22:00,wlan,,Elf,,https://www.openstreetmap.org/node/5055873521
5103333022,Unnamed,hostel,13.760661,100.498886,Bangkok,Thailand,,,,,,,,,https://www.openstreetmap.org/node/5103333022
5110764521,Unnamed,hostel,13.7605612,100.4977115,Bangkok,Thailand,,,,,,,,,https://www.openstreetmap.org/node/5110764521
5156308421,Unnamed,hostel,13.7707368,100.631594,Bangkok,Thailand,,,,,,,,,https://www.openstreetmap.org/node/5156308421
5168275321,The Oasis Hostel Chinatown,hostel,13.7414718,100.5148543,Bangkok,Thailand,ตรอกพันธจิตต์ 1,+66 (0) 21016493,https://www.theoasishostel.com/,Mo-Su 07:00-23:00,wlan,,"Somvadee Sroiphet, Peter Laird, Lasse Mortensen",,https://www.openstreetmap.org/node/5168275321
5185762861,D.DonMuang Hostel,hostel,13.9234231,100.6008673,Bangkok,Thailand,,,,,wlan,,,,https://www.openstreetmap.org/node/5185762861
5185906614,Unnamed,hostel,13.9233935,100.6009651,Bangkok,Thailand,,,,,,,,,https://www.openstreetmap.org/node/5185906614
5185990331,Add Home Hostel,hostel,13.9236805,100.6012978,Bangkok,Thailand,,,,,,,,,https://www.openstreetmap.org/node/5185990331
5195396232,Unnamed,wifi_cafe,13.7495825,100.4983207,Bangkok,Thailand,,,,Mo-Fr 07:30-16:00; Sa 08:30-15:00,wlan,,,,https://www.openstreetmap.org/node/5195396232
5201208490,Cafe Hibiscus (Study Room),wifi_cafe,13.7215125,100.5093124,Bangkok,Thailand,ซอยเจริญนคร 13,,,Mo-Su 08:00-21:00,yes,,,,https://www.openstreetmap.org/node/5201208490
5205806426,Unnamed,library,13.744088,100.5469145,Bangkok,Thailand,,,,,,,,,https://www.openstreetmap.org/node/5205806426
5211517543,Unnamed,hostel,13.7385264,100.5653932,Bangkok,Thailand,Sukhumvit 23,+6620355823,https://www.revolutionhostels.com/,Mo-Su 07:00-00:00,wlan,,,,https://www.openstreetmap.org/node/5211517543
5213639422,Fitness First Platinum,gym,13.7253965,100.5444155,Bangkok,Thailand,,,,Mo-Su 06:00-22:00,wlan,,,Fitness First,https://www.openstreetmap.org/node/5213639422
5213858622,Revolution Hostels,hostel,13.7385599,100.5653941,Bangkok,Thailand,Sukhumvit 23,,https://www.revolutionhostels.com/,Mo-Su 07:00-00:00,wlan,,Henrik Voigt,,https://www.openstreetmap.org/node/5213858622
5213859224,On | Nineteen Coffee Shop,wifi_cafe,13.7395356,100.5599167,Bangkok,Thailand,,,,,wlan,,,,https://www.openstreetmap.org/node/5213859224
5220814222,Unnamed,hostel,13.7605866,100.4987798,Bangkok,Thailand,,,,,,,,,https://www.openstreetmap.org/node/5220814222
5221313342,Remedy Coffee Roastery,wifi_cafe,13.7554692,100.5070979,Bangkok,Thailand,ซอยบรมบรรพต,,,,wlan,,,,https://www.openstreetmap.org/node/5221313342
5221354823,Unnamed,wifi_cafe,13.7621145,100.4937021,Bangkok,Thailand,,,,,wlan,,,,https://www.openstreetmap.org/node/5221354823
5222619421,Mali Home Hostel,hostel,13.743976,100.509386,Bangkok,Thailand,,,,,wlan,,,,https://www.openstreetmap.org/node/5222619421
5223088624,Home Mali Hostel,hostel,13.74366,100.5092337,Bangkok,Thailand,,,,,,,,,https://www.openstreetmap.org/node/5223088624
5224592122,Mali Home Hostel,hostel,13.7537785,100.5304936,Bangkok,Thailand,ถนนเพชรบุรี,,https://booking.com/,,wlan,,,,https://www.openstreetmap.org/node/5224592122
5225793821,Unnamed,wifi_cafe,13.7437118,100.4960164,Bangkok,Thailand,ถนนอัษฎางค์,,,,wlan,,,,https://www.openstreetmap.org/node/5225793821
5236981622,ยูยะ ค๊อฟฟี่,wifi_cafe,13.7528357,100.6111976,Bangkok,Thailand,ถนนรามคำแหง,,,Mo-Su 06:00-17:00,wlan,,,,https://www.openstreetmap.org/node/5236981622
5243990422,Unnamed,wifi_cafe,13.7545983,100.4889167,Bangkok,Thailand,,,,,wlan,,,,https://www.openstreetmap.org/node/5243990422
5244057021,คาเฟ่ อเมซอน,wifi_cafe,13.780836,100.4224432,Bangkok,Thailand,,,,,wlan,,,คาเฟ่ อเมซอน,https://www.openstreetmap.org/node/5244057021
5247788877,ยัวร์ ฟิตเนส,gym,13.5969165,100.6053393,Bangkok,Thailand,"Sukhumvit road, Pak Nam, Samut Prakan  10270",,,,,,,,https://www.openstreetmap.org/node/5247788877
5261602965,MUSCLE BEAT GYM,gym,13.7974884,100.5950711,Bangkok,Thailand,,,,,,,,,https://www.openstreetmap.org/node/5261602965
5265327821,Unnamed,wifi_cafe,13.7550338,100.5329244,Bangkok,Thailand,,,,,wlan,,,,https://www.openstreetmap.org/node/5265327821
5267749322,S.T. Laundry,laundry,13.7272901,100.5345224,Bangkok,Thailand,,,,Mo-Fr 08:00-14:00,,,,,https://www.openstreetmap.org/node/5267749322
5272058821,Unnamed,laundry,13.7551534,100.5006412,Bangkok,Thailand,,,,24/7,,,,,https://www.openstreetmap.org/node/5272058821
5283277354,ห้องสมุดศิลปะ,library,13.7468339,100.5304748,Bangkok,Thailand,,+66 2 214 6630 p 126,https://library.bacc.or.th/,"Tu-Su,PH 10:00-19:30; Mo closed",terminal;wlan,,,,https://www.openstreetmap.org/node/5283277354
5285644721,The Sound Cafe',wifi_cafe,13.7700306,100.5054045,Bangkok,Thailand,,,,,wlan,,,,https://www.openstreetmap.org/node/5285644721
5296780521,Unnamed,hostel,13.7166699,100.5215223,Bangkok,Thailand,,,,,wlan,,,,https://www.openstreetmap.org/node/5296780521
5301712022,อินทนิล คอฟฟี่,wifi_cafe,13.7118503,100.4341751,Bangkok,Thailand,ถนนเพชรเกษม,,https://www.inthanincoffee.com/,Mo-Fr 10:30-20:00; Sa-Su 10:00-20:00,wlan,,,,https://www.openstreetmap.org/node/5301712022
5302229555,Unnamed,laundry,13.7674513,100.5055131,Bangkok,Thailand,,,,,,,,,https://www.openstreetmap.org/node/5302229555
5315842221,หมู่บ้าน mj,hostel,13.7121728,100.6232384,Bangkok,Thailand,,,,,,,,,https://www.openstreetmap.org/node/5315842221
5330877721,The Rooftop Residence,hostel,13.74486,100.5137994,Bangkok,Thailand,,,,24/7,wlan,,,,https://www.openstreetmap.org/node/5330877721
5337021155,Unnamed,laundry,13.7694091,100.5037287,Bangkok,Thailand,,,,,,,,,https://www.openstreetmap.org/node/5337021155
5344191226,K8 Hostel,hostel,13.7489661,100.4991268,Bangkok,Thailand,,,,,,,,,https://www.openstreetmap.org/node/5344191226
5354297821,Unnamed,wifi_cafe,13.7894999,100.5824017,Bangkok,Thailand,,,,,wlan,,,,https://www.openstreetmap.org/node/5354297821
5367410721,Starbucks,wifi_cafe,13.7055309,100.4908815,Bangkok,Thailand,,,,,wlan,,,Starbucks,https://www.openstreetmap.org/node/5367410721
5402906822,Greenery Hostel,hostel,13.7568039,100.5267984,Bangkok,Thailand,,,,24/7,wlan,,,,https://www.openstreetmap.org/node/5402906822
5408980222,Unnamed,hostel,13.7390787,100.5090704,Bangkok,Thailand,ซอยวานิช 1,,,,,,,,https://www.openstreetmap.org/node/5408980222
5410048321,Unnamed,hostel,13.7626442,100.501795,Bangkok,Thailand,ถนนประชาธิปไตย,0895310609,,,wlan,,,,https://www.openstreetmap.org/node/5410048321
5411865460,Tenten hostel,hostel,13.7407838,100.5240629,Bangkok,Thailand,,,,,,,,,https://www.openstreetmap.org/node/5411865460
5424168321,วีเซล คอฟฟี่,wifi_cafe,13.8856448,100.4502552,Bangkok,Thailand,,,,,wlan,,,,https://www.openstreetmap.org/node/5424168321
5444296337,Waterworks Coffee,wifi_cafe,13.7302722,100.5811998,Bangkok,Thailand,ซอยสุขุมวิท 55,,https://www.facebook.com/Waterworks-Coffee-469923566722002/,Mo-Su 07:45-18:00,wlan,no,,,https://www.openstreetmap.org/node/5444296337
5448426446,Sleep Tight Hostel,hostel,13.7633111,100.4994449,Bangkok,Thailand,,,,,,,,,https://www.openstreetmap.org/node/5448426446
5457021221,หอพัก,hostel,13.6712473,100.6663634,Bangkok,Thailand,เฉลิมพระเกียรติ ร.9 ซอย 14,,,,,,,,https://www.openstreetmap.org/node/5457021221
5460423324,luck-yimm,hostel,13.7531493,100.4999007,Bangkok,Thailand,,,,,,,,,https://www.openstreetmap.org/node/5460423324
5463468022,Baan Bangkok (private Rooms),hostel,13.7622383,100.5019401,Bangkok,Thailand,,,,,wlan,,,,https://www.openstreetmap.org/node/5463468022
5466324421,บ้านบาส กทม,hostel,13.7906199,100.5854922,Bangkok,Thailand,ถนนสุทธิสารวินิจฉัย,,,,,,บาส,,https://www.openstreetmap.org/node/5466324421
5479195321,Unnamed,hostel,13.7621834,100.4949868,Bangkok,Thailand,,,,,,,,,https://www.openstreetmap.org/node/5479195321
5485728107,Ken Café,wifi_cafe,13.7500226,100.5374018,Bangkok,Thailand,,,,,wlan,,,,https://www.openstreetmap.org/node/5485728107
5490142522,Pura Vida Hostel Bangkok,hostel,13.7637157,100.4992531,Bangkok,Thailand,58 Samsen Rd. Khwaeng Ban Phan m,0813483158,http://www.puravidahostelbangkok.com,24/7,,,,,https://www.openstreetmap.org/node/5490142522
5497967727,Floral Cafe,wifi_cafe,13.742236,100.496746,Bangkok,Thailand,"Chakkraphet Rd,",02 222 6895,,Mo-So 09:00-19:00,wlan,,,,https://www.openstreetmap.org/node/5497967727
5510104323,Sloth Hos,hostel,13.9168342,100.5976318,Bangkok,Thailand,,,,,,,,,https://www.openstreetmap.org/node/5510104323
5510709881,Yaks,hostel,13.7676672,100.4852878,Bangkok,Thailand,,,,,,,,,https://www.openstreetmap.org/node/5510709881
5528225122,ราชการุญ,hostel,13.7666543,100.493376,Bangkok,Thailand,ซ.สมเด็จพระปิ่นเกล้า2 ถนนสมเด็จพระปิ่นเกล้า บางยี่ขัน บางพลัด กรุงเทพ,,,,,,,,https://www.openstreetmap.org/node/5528225122
5541551621,Unnamed,gym,13.7286351,100.5604998,Bangkok,Thailand,Sukhumvit Soi 16,,,,,,,,https://www.openstreetmap.org/node/5541551621
5551782488,Nourish Cafe,wifi_cafe,13.7051314,100.5974795,Bangkok,Thailand,สุขุมวิท 50,,,Mo-Fr 07:00-21:00; Sa-Su 09:00-17:00,yes,,,,https://www.openstreetmap.org/node/5551782488
5551786563,Bangkok Fight Lab,gym,13.7051092,100.5974969,Bangkok,Thailand,ซอยอารีย์รักษ์,,,,,,,,https://www.openstreetmap.org/node/5551786563
5571315054,D HOUSE HOSTEL,hostel,13.9257525,100.5989458,Bangkok,Thailand,สรณคมน์,,,,,,,,https://www.openstreetmap.org/node/5571315054
5591939222,Unnamed,hostel,13.7224385,100.4615433,Bangkok,Thailand,,,,,wlan,,,,https://www.openstreetmap.org/node/5591939222
5595440621,บ้านยุพา,hostel,13.7879325,100.7836066,Bangkok,Thailand,,,,,,,ยุพา ศรัทธาทิพย์,,https://www.openstreetmap.org/node/5595440621
5608474021,คาเฟ่ อเมซอน,wifi_cafe,13.5979273,100.5850357,Bangkok,Thailand,ถนนสุขสวัสดิ์,0624635546,,Mo-Su 06:00-19:00,wlan,,,คาเฟ่ อเมซอน,https://www.openstreetmap.org/node/5608474021
5610728467,PanPan Hostel,hostel,13.7230749,100.5230041,Bangkok,Thailand,,,,,wlan,no,,,https://www.openstreetmap.org/node/5610728467
5610728468,COOPER Bangkok,hostel,13.7231557,100.5230033,Bangkok,Thailand,,,,,wlan,no,,,https://www.openstreetmap.org/node/5610728468
5646115730,Unnamed,hostel,13.8390939,100.5690538,Bangkok,Thailand,Ngam Wong Wan 54 lane 5,,,,,,,,https://www.openstreetmap.org/node/5646115730
5647081725,Unnamed,hostel,13.7601582,100.4985871,Bangkok,Thailand,,,,,,,,,https://www.openstreetmap.org/node/5647081725
5663256721,บ้านบางกอก,hostel,13.7634689,100.5002525,Bangkok,Thailand,Samsen Soi 4,"020458100, 0972415491",http://baanbangkokhostel.com,Mo-Su 07:00-00:00,wlan,,Bo,,https://www.openstreetmap.org/node/5663256721
5677510533,Larnahouse,wifi_cafe,13.730321,100.6583321,Bangkok,Thailand,ซอย พัฒนาการ 61,,,Mo-Su 09:00-22:00,yes,,,,https://www.openstreetmap.org/node/5677510533
5744763329,Mamy Clean (Laundry and Dry Cleaning),laundry,13.8341973,100.5790567,Bangkok,Thailand,Sena Nikhom 12,,,,,,,,https://www.openstreetmap.org/node/5744763329
5758166121,สตาร์แมนชั่น,hostel,13.8149387,100.6091716,Bangkok,Thailand,,,,,,,,,https://www.openstreetmap.org/node/5758166121
5778512453,Mama Guesthouse,hostel,13.7594425,100.4969517,Bangkok,Thailand,ถนนรามบุตรี,+66973177896,,24/7,wlan,,,,https://www.openstreetmap.org/node/5778512453
5792911354,Unnamed,hostel,13.7585452,100.4989256,Bangkok,Thailand,,,,,,,,,https://www.openstreetmap.org/node/5792911354
5800285853,3howw Hostel,hostel,13.7627294,100.5016532,Bangkok,Thailand,,,,,,,,,https://www.openstreetmap.org/node/5800285853
5808180053,หอพักT8,hostel,13.9106224,100.5541087,Bangkok,Thailand,,,,,,,,,https://www.openstreetmap.org/node/5808180053
5813196753,Unnamed,gym,13.7372671,100.547538,Bangkok,Thailand,"GPF Witthayu Tower B, Unit 114/1, 212 Wireless Road Lumpini, Pathumwan",,,,,,,,https://www.openstreetmap.org/node/5813196753
5831557885,Unnamed,hostel,13.720334,100.5565074,Bangkok,Thailand,"1358-1362, Khwaeng Khlong Toei, Klong Toey, Krung Thep Maha Nakhon 10110, Thailand",,https://www.hostelworld.com/hosteldetails.php/Tent-Hostel/Bangkok/286084,,wlan,,,,https://www.openstreetmap.org/node/5831557885
5888497185,19a Bangkok Hostel,hostel,13.7756835,100.5434017,Bangkok,Thailand,,,,,wlan,,,,https://www.openstreetmap.org/node/5888497185
5930779695,Siam Golden Place,hostel,13.7301024,100.7335124,Bangkok,Thailand,MOTORWAY ROAD,,,,wlan,,+6621717499,,https://www.openstreetmap.org/node/5930779695
5961329885,Unnamed,gym,13.7463912,100.5081727,Bangkok,Thailand,,,https://www.facebook.com/pages/Chuwattana-Muay-Thai-Gym/152488104818774,,,,,,https://www.openstreetmap.org/node/5961329885
5963235887,Unnamed,wifi_cafe,13.7770464,100.5797673,Bangkok,Thailand,,,,Mo-Sa 09:00-18:00,wlan,,,,https://www.openstreetmap.org/node/5963235887
5988761403,Banankhon Hostel,hostel,13.7550188,100.5007686,Bangkok,Thailand,15 Dinso Road,00654898077,https://m.facebook.com/BaankhonBangkok,,,,,,https://www.openstreetmap.org/node/5988761403
5999761740,Gymboree,gym,13.7018011,100.5369935,Bangkok,Thailand,,,,,,,,,https://www.openstreetmap.org/node/5999761740
6007414854,Hush Hush Cabina,hostel,13.680974,100.6058121,Bangkok,Thailand,Sukhumvit 66/1,+66970027460,https://www.airbnb.com/rooms/16787156,,,,,,https://www.openstreetmap.org/node/6007414854
6009125185,Timber Hostel,hostel,13.7524401,100.5283125,Bangkok,Thailand,,,,,yes,,,,https://www.openstreetmap.org/node/6009125185
6019307287,ร่มโพธ,hostel,13.8560146,100.4846192,Bangkok,Thailand,ถนนนนทบุรี 1 (ทางขนาน),,,,,,,,https://www.openstreetmap.org/node/6019307287
6043933474,YHA Bangkok Airport,hostel,13.6980914,100.7347865,Bangkok,Thailand,,,,,yes,,,,https://www.openstreetmap.org/node/6043933474
6050719528,Baanbangkok Chinatown,hostel,13.7414762,100.5148299,Bangkok,Thailand,ตรอกพันธจิตต์ 2,,,,wlan,,,,https://www.openstreetmap.org/node/6050719528
6050900385,Unnamed,hostel,13.8491706,100.5315249,Bangkok,Thailand,,,,,,,,,https://www.openstreetmap.org/node/6050900385
6095706786,Sangmorakat Muay,gym,13.7556301,100.5100633,Bangkok,Thailand,,,,,,,,,https://www.openstreetmap.org/node/6095706786
6110949757,Learning space,library,13.6534134,100.495098,Bangkok,Thailand,,,,,,,,,https://www.openstreetmap.org/node/6110949757
6122564186,Unnamed,hostel,13.7453531,100.5232073,Bangkok,Thailand,ถนนบรรทัดทอง,,,,,,,,https://www.openstreetmap.org/node/6122564186
6145393675,Anytime fitness,gym,13.7343646,100.545534,Bangkok,Thailand,,,,,,,,,https://www.openstreetmap.org/node/6145393675
6158072394,เซ็นเตอร์วอช ซักแห้ง ซักอบรีด,laundry,13.8298313,100.4704026,Bangkok,Thailand,,06 2652 3641,,Mo-Su 07:00-20:00,,,,,https://www.openstreetmap.org/node/6158072394
6163744198,Unnamed,laundry,13.7393602,100.5559582,Bangkok,Thailand,,,,,,,,,https://www.openstreetmap.org/node/6163744198
6163747501,The Home BKK,hostel,13.7397086,100.5653441,Bangkok,Thailand,ซอยสุขุมวิท 23,,,Mo-Su 08:30-21:00,wlan,,,,https://www.openstreetmap.org/node/6163747501
6185339786,ตึกพักชายที่ 13,hostel,13.8486982,100.5680981,Bangkok,Thailand,,,,,,limited,,,https://www.openstreetmap.org/node/6185339786
6189228689,Black Canyon,wifi_cafe,13.7808345,100.4225274,Bangkok,Thailand,,,,,wlan,,,Black Canyon,https://www.openstreetmap.org/node/6189228689
6220718386,Unnamed,gym,13.7395174,100.468043,Bangkok,Thailand,,,,Mo-Su 16:00-22:00,,,,,https://www.openstreetmap.org/node/6220718386
6237362243,TK Park,library,13.7468945,100.5387593,Bangkok,Thailand,,+66 2 257 4300,https://www.tkpark.or.th/,"Tu-Su,PH 10:00-22:00; Mo closed",terminal;wlan,yes,,,https://www.openstreetmap.org/node/6237362243
6246803685,Unnamed,gym,13.7226142,100.5292989,Bangkok,Thailand,,,,,,,,,https://www.openstreetmap.org/node/6246803685
6246803785,Fitness First,gym,13.7465395,100.5353494,Bangkok,Thailand,,,,,,,,Fitness First,https://www.openstreetmap.org/node/6246803785
6247148185,Unnamed,gym,13.7212408,100.529925,Bangkok,Thailand,,+66 2 017 9777,https://www.virginactive.co.th,Mo-Fr 06:00-22:00; Sa-Su 08:00-21:00,,,,,https://www.openstreetmap.org/node/6247148185
6247158785,Unnamed,gym,13.7213985,100.5309466,Bangkok,Thailand,,,,,,,,,https://www.openstreetmap.org/node/6247158785
6249253785,Jetts Fitness,gym,13.7244699,100.5293693,Bangkok,Thailand,,,,24/7,,,,Jetts Fitness,https://www.openstreetmap.org/node/6249253785
6251045985,Unnamed,gym,13.6692107,100.6343826,Bangkok,Thailand,,,,"Mo-Fr 06:00-22:00, Sa-Su 08:00-21:00",,,,,https://www.openstreetmap.org/node/6251045985
6251045987,Fitness First,gym,13.7647558,100.5684527,Bangkok,Thailand,,,,,,,,Fitness First,https://www.openstreetmap.org/node/6251045987
6251051586,Fitness First,gym,13.6486278,100.6818663,Bangkok,Thailand,,,,"Mo-Fr 05:00-24:00; Sa,Su 08:00-21:00; PH 08:00-20:00",,,,Fitness First,https://www.openstreetmap.org/node/6251051586
6251053085,Fitness First,gym,13.7581395,100.5657436,Bangkok,Thailand,,,,,,,,Fitness First,https://www.openstreetmap.org/node/6251053085
6251054987,Unnamed,gym,13.7126165,100.4079789,Bangkok,Thailand,,,,,,,,,https://www.openstreetmap.org/node/6251054987
6251054988,Unnamed,gym,13.7136632,100.48019,Bangkok,Thailand,,,,,,,,,https://www.openstreetmap.org/node/6251054988
6251058085,Fitness First,gym,13.6921422,100.6481495,Bangkok,Thailand,,,,,,,,Fitness First,https://www.openstreetmap.org/node/6251058085
6260225953,Mellow Fellow Hostel,hostel,13.7512844,100.528553,Bangkok,Thailand,,,,,,,,,https://www.openstreetmap.org/node/6260225953
6267689554,Bed Station Hostel,hostel,13.7604201,100.4980904,Bangkok,Thailand,Tani Road,,,,,,,,https://www.openstreetmap.org/node/6267689554
6270591394,Unnamed,hostel,13.7546723,100.5023839,Bangkok,Thailand,,,,,,,,,https://www.openstreetmap.org/node/6270591394
6270593786,Unnamed,laundry,13.7580714,100.4998802,Bangkok,Thailand,,,,,,,,,https://www.openstreetmap.org/node/6270593786
6274385898,Unnamed,laundry,13.75774,100.5002488,Bangkok,Thailand,,,,,,,,,https://www.openstreetmap.org/node/6274385898
6274385920,Unnamed,hostel,13.7630948,100.5009242,Bangkok,Thailand,,,,,,,,,https://www.openstreetmap.org/node/6274385920
6274386189,Unnamed,laundry,13.7562336,100.4968111,Bangkok,Thailand,,,,,,,,,https://www.openstreetmap.org/node/6274386189
6274391192,Unnamed,laundry,13.763935,100.5008257,Bangkok,Thailand,,,,,,,,,https://www.openstreetmap.org/node/6274391192
6274442293,Unnamed,hostel,13.7671206,100.5013755,Bangkok,Thailand,,,,,,,,,https://www.openstreetmap.org/node/6274442293
6276435186,Unnamed,laundry,13.7194483,100.5165924,Bangkok,Thailand,,,,,,,,,https://www.openstreetmap.org/node/6276435186
6282634785,Carousel Coffee,wifi_cafe,13.7267402,100.4938058,Bangkok,Thailand,,,,,wlan,,,,https://www.openstreetmap.org/node/6282634785
6287460406,Unnamed,laundry,13.7667869,100.5040795,Bangkok,Thailand,,,,,,,,,https://www.openstreetmap.org/node/6287460406
6287460407,Unnamed,laundry,13.7658497,100.5037376,Bangkok,Thailand,,,,,,,,,https://www.openstreetmap.org/node/6287460407
6295238686,Unnamed,wifi_cafe,13.7273541,100.575413,Bangkok,Thailand,,,,,wlan,limited,,,https://www.openstreetmap.org/node/6295238686
6310510786,Tee Tee+ Bubble Tea,wifi_cafe,13.739403,100.5115586,Bangkok,Thailand,,,,,wlan,,,,https://www.openstreetmap.org/node/6310510786
6314173786,Unnamed,laundry,13.7520672,100.5297816,Bangkok,Thailand,,,,,,,,,https://www.openstreetmap.org/node/6314173786
6315676694,Unnamed,wifi_cafe,13.7156164,100.5925815,Bangkok,Thailand,,+66625254662,,"Mo-Tu, Th-Fr 08:30-17:30; Sa-Su 09:00-18:00",wlan,,,,https://www.openstreetmap.org/node/6315676694
6320962886,Unnamed,hostel,13.7626869,100.5034339,Bangkok,Thailand,,+66927246963,,24/7,wlan,,,,https://www.openstreetmap.org/node/6320962886
6322432785,Unnamed,laundry,13.7202382,100.4859889,Bangkok,Thailand,,,,,,,,,https://www.openstreetmap.org/node/6322432785
6322432885,Unnamed,laundry,13.7265133,100.4949793,Bangkok,Thailand,,,,,,,,,https://www.openstreetmap.org/node/6322432885
6322455185,Unnamed,laundry,13.7258776,100.4912887,Bangkok,Thailand,,,,,,,,,https://www.openstreetmap.org/node/6322455185
6340945486,Unnamed,laundry,13.7315686,100.4938846,Bangkok,Thailand,,,,,,,,,https://www.openstreetmap.org/node/6340945486
6342428485,SleepWith “ME”,hostel,13.7624519,100.503592,Bangkok,Thailand,ถนนประชาธิปไตย,+66 92 724 6963,,,,,,,https://www.openstreetmap.org/node/6342428485
6345075186,Unnamed,laundry,13.9268818,100.5991639,Bangkok,Thailand,,,,24/7,wlan,,,,https://www.openstreetmap.org/node/6345075186
6377236986,Unnamed,wifi_cafe,13.8214116,100.5579439,Bangkok,Thailand,,,,,wlan,,,,https://www.openstreetmap.org/node/6377236986
6377236987,Unnamed,wifi_cafe,13.8217181,100.5579353,Bangkok,Thailand,,,,,wlan,,,,https://www.openstreetmap.org/node/6377236987
6391904587,Unnamed,wifi_cafe,13.7546457,100.4985226,Bangkok,Thailand,ถนนตะนาว,020522662,,,wlan,,,,https://www.openstreetmap.org/node/6391904587
6416456440,Thai food,wifi_cafe,13.7603866,100.496798,Bangkok,Thailand,ถนนรามบุตรี,,,24/7,wlan,no,,,https://www.openstreetmap.org/node/6416456440
6424856989,Unnamed,laundry,13.7005881,100.6076298,Bangkok,Thailand,,,,,,,,,https://www.openstreetmap.org/node/6424856989
6425020885,Unnamed,laundry,13.7005293,100.6085664,Bangkok,Thailand,ซอยสุขุมวิท 93,,,24/7,wlan,,,,https://www.openstreetmap.org/node/6425020885
6430215185,ลุก​ โฮเทล​,hostel,13.7397976,100.5079092,Bangkok,Thailand,ซอยวานิช 1,0948933561,,24/7,wlan,,Earf Tuanwachat,,https://www.openstreetmap.org/node/6430215185
6447214985,Unnamed,wifi_cafe,13.750701,100.5312191,Bangkok,Thailand,,,,Mo-Su 07:00-18:30,wlan,,,,https://www.openstreetmap.org/node/6447214985
6447902712,Unnamed,hostel,13.7103485,100.6013312,Bangkok,Thailand,,,,,,,,,https://www.openstreetmap.org/node/6447902712
6471827585,Baan Bangkok Home,hostel,13.7622232,100.5021207,Bangkok,Thailand,,,,,,,,,https://www.openstreetmap.org/node/6471827585
6486006485,Unnamed,wifi_cafe,13.8006301,100.5506888,Bangkok,Thailand,,,,,wlan,,,,https://www.openstreetmap.org/node/6486006485
6515004824,ห้องสมุดวิลเลี่ยม วอร์เรน,library,13.7488692,100.5281486,Bangkok,Thailand,,+66 2 612 6741,http://www.jimthompsonartcenter.org/william-warren-library,Tu-Sa 09:00-17:00 open; PH closed,wlan;terminal,,,,https://www.openstreetmap.org/node/6515004824
6565967786,Unnamed,wifi_cafe,13.7897517,100.572083,Bangkok,Thailand,,,,,wlan,,,,https://www.openstreetmap.org/node/6565967786
6603635385,Rest Ari Hostel,hostel,13.783713,100.5436538,Bangkok,Thailand,,,,,,,,,https://www.openstreetmap.org/node/6603635385
6610274086,Unnamed,hostel,13.7407594,100.5699667,Bangkok,Thailand,,,,,,,,,https://www.openstreetmap.org/node/6610274086
6611253688,Unnamed,hostel,13.7319118,100.5630086,Bangkok,Thailand,,,,,,,,,https://www.openstreetmap.org/node/6611253688
6660285286,Unnamed,gym,13.7565271,100.5338291,Bangkok,Thailand,,,,,,,,,https://www.openstreetmap.org/node/6660285286
6734478685,Unnamed,hostel,13.7621881,100.4946304,Bangkok,Thailand,,,,,,,,,https://www.openstreetmap.org/node/6734478685
6735095037,Moods Coffee,wifi_cafe,13.7335716,100.4909724,Bangkok,Thailand,,,,,wlan,,,,https://www.openstreetmap.org/node/6735095037
6753255808,Catch up Cafe,wifi_cafe,13.7235985,100.753054,Bangkok,Thailand,,,,,wlan,,,,https://www.openstreetmap.org/node/6753255808
6763140985,Unnamed,wifi_cafe,13.7543404,100.6146683,Bangkok,Thailand,,,https://m.facebook.com/MissPailyn.CoffeeHouse/,,wlan,,,,https://www.openstreetmap.org/node/6763140985
6780586819,Unnamed,gym,13.7387297,100.5654513,Bangkok,Thailand,,,,,,,,,https://www.openstreetmap.org/node/6780586819
6805673110,Makkasan Happy Home,hostel,13.7508779,100.5596902,Bangkok,Thailand,Petchaburi Road,+66 63 493 5391,,,,,,,https://www.openstreetmap.org/node/6805673110
6813822215,XYZT Cafe,wifi_cafe,13.8445982,100.5722675,Bangkok,Thailand,,,,,wlan,,,,https://www.openstreetmap.org/node/6813822215
6816974886,Crazy About Coffee,wifi_cafe,13.7202393,100.5840062,Bangkok,Thailand,,,,,wlan,,,,https://www.openstreetmap.org/node/6816974886
6843795859,Peacock Alley,wifi_cafe,13.7423614,100.5408835,Bangkok,Thailand,ถนนราชดำริ,+66 2 846 8848,https://www.hilton.com/en/hotels/bkkwawa-waldorf-astoria-bangkok/dining/peacock-alley/,10:00 - 21:30,wlan,yes,,,https://www.openstreetmap.org/node/6843795859
6874931985,Unnamed,gym,13.7200237,100.5260683,Bangkok,Thailand,สาทร 11,+66 2 307 8698,https://www.trikayog.com/,,,,,,https://www.openstreetmap.org/node/6874931985
6888391085,Alice Cafe,wifi_cafe,13.748578,100.4979332,Bangkok,Thailand,ถนนเฟื่องนคร,+66 2 622 3635,,Mo-Su 08:00-17:00,wlan,no,,,https://www.openstreetmap.org/node/6888391085
6897991386,พิพิธภัณฑ์ตูนนนี่,wifi_cafe,13.9347853,100.5617777,Bangkok,Thailand,,,,,wlan,,,,https://www.openstreetmap.org/node/6897991386
6923883404,Peace Factory Hostel,hostel,13.7477052,100.5082082,Bangkok,Thailand,,,,,,,,,https://www.openstreetmap.org/node/6923883404
6940309086,Rest is More,hostel,13.751988,100.5074609,Bangkok,Thailand,ถนนบำรุงเมือง,,,,,,,,https://www.openstreetmap.org/node/6940309086
6942407918,คาเฟ่ อเมซอน,wifi_cafe,13.7460366,100.499758,Bangkok,Thailand,,,,,wlan,,,คาเฟ่ อเมซอน,https://www.openstreetmap.org/node/6942407918
6952878385,Glass Lodge,hostel,13.7227703,100.5521766,Bangkok,Thailand,ถนนพระรามที่ 4,0846719661,,,wlan,,,,https://www.openstreetmap.org/node/6952878385
6965560248,Siam Ratana Bakehouse,wifi_cafe,13.7264418,100.4942669,Bangkok,Thailand,,,,,wlan,,,,https://www.openstreetmap.org/node/6965560248
6997798292,Long Klong Homestay 63 Moo 5 Bangkrui,hostel,13.8483819,100.4237893,Bangkok,Thailand,"Long Klong Homestay 63 Moo 5 Bangkrui, Srainoi road, T.Bang Lane, A.Bang Yai, Nonthaburi, Thailand","+66-616456229, +66-628293693, +66-616456229",,,,,,,https://www.openstreetmap.org/node/6997798292
7017647185,Unnamed,hostel,13.7623164,100.5039885,Bangkok,Thailand,ถนนประชาธิปไตย,+66 98 2787658,,Mo-Su 09:00-22:00,wlan,,,,https://www.openstreetmap.org/node/7017647185
7017942586,Unnamed,hostel,13.7535217,100.5384341,Bangkok,Thailand,,,,,,,,,https://www.openstreetmap.org/node/7017942586
7019228589,The Pirate Toast รามคำแหง65,wifi_cafe,13.7695961,100.622851,Bangkok,Thailand,ซอยลาดพร้าว 122,,,,yes,,,,https://www.openstreetmap.org/node/7019228589
7025008886,PlaySpace Board,wifi_cafe,13.8065867,100.5730411,Bangkok,Thailand,ซอยลาดพร้าว 24,,,,wlan,,,,https://www.openstreetmap.org/node/7025008886
7026591487,หลบศึกโฮสเทล,hostel,13.760756,100.5022145,Bangkok,Thailand,ถนนประชาธิปไตย,021154295,https://www.booking.com/hotel/th/lobsuek-hostel.html?lang=xu,24/7,wlan,,Jiramoth thanapanaphruekkul,,https://www.openstreetmap.org/node/7026591487
7034900285,Unnamed,hostel,13.7609812,100.5035404,Bangkok,Thailand,,,,,wlan,,,,https://www.openstreetmap.org/node/7034900285
7035758185,Hanu Hostel Bangkok,hostel,13.7563244,100.4981679,Bangkok,Thailand,,,,,wlan,,,,https://www.openstreetmap.org/node/7035758185
7041203185,Roadside Laundry (20-30Bth),laundry,13.7554908,100.4998197,Bangkok,Thailand,,,,,,,,,https://www.openstreetmap.org/node/7041203185
7041603070,Pop Art Hostel,hostel,13.7417007,100.5143148,Bangkok,Thailand,Soi Phantha Chit 2,+66826604290,https://www.facebook.com/PopArtHostelChinatown/,,wlan,,,,https://www.openstreetmap.org/node/7041603070
7050310287,Unnamed,laundry,13.7605087,100.502052,Bangkok,Thailand,,,,,,,,,https://www.openstreetmap.org/node/7050310287
7058244820,Otteri,laundry,13.7399837,100.5252694,Bangkok,Thailand,,,,,,limited,,,https://www.openstreetmap.org/node/7058244820
7058297153,Too Fast To Sleep,wifi_cafe,13.7423435,100.5273553,Bangkok,Thailand,,,,Mo-Sa 00:00-24:00,wlan,,,,https://www.openstreetmap.org/node/7058297153
7068187374,Bed Station Hostel Khaosan,hostel,13.7599037,100.4980194,Bangkok,Thailand,,,,,,,,,https://www.openstreetmap.org/node/7068187374
7085134981,ตึกหอพักชาย 2,hostel,13.848693,100.5678446,Bangkok,Thailand,,,,,,limited,,,https://www.openstreetmap.org/node/7085134981
7086006629,ห้องสมุดมหาวิทยาลัยราชภัฏจันทรเกษม,library,13.820516,100.5765161,Bangkok,Thailand,,,,,,,,,https://www.openstreetmap.org/node/7086006629
7135581850,Visit House,hostel,13.7560837,100.5099184,Bangkok,Thailand,lan Luang soi 4,,,,,,,,https://www.openstreetmap.org/node/7135581850
7147882285,Unnamed,gym,13.7219491,100.5654576,Bangkok,Thailand,,,,,,,,,https://www.openstreetmap.org/node/7147882285
7168720159,FOMU,wifi_cafe,13.8964798,100.5523192,Bangkok,Thailand,ถนนแจ้งวัฒนะ,,,Mo-Su 11:00-17:00,yes,,,,https://www.openstreetmap.org/node/7168720159
7172114487,แฮปปี้สเตชั่น,hostel,13.7381732,100.5175833,Bangkok,Thailand,ถนนพระรามที่ 4,+66 85 800 6900,https://www.happystationbangkok.com,,wlan,,,,https://www.openstreetmap.org/node/7172114487
7177878885,Unnamed,wifi_cafe,13.7211948,100.5156311,Bangkok,Thailand,,+66 658636554,https://linktr.ee/sarnies.sourdough,Mo-Su 08:00-21:30,wlan,,,,https://www.openstreetmap.org/node/7177878885
7180329585,Unnamed,hostel,13.7601623,100.4938978,Bangkok,Thailand,,022820953,,,,,,,https://www.openstreetmap.org/node/7180329585
7189883444,Beehive Coffe House,wifi_cafe,13.6780251,100.573348,Bangkok,Thailand,,,,,wlan,,,,https://www.openstreetmap.org/node/7189883444
7209088266,FoRest bed&brunch,hostel,13.7093707,100.5981907,Bangkok,Thailand,,,,,,,,,https://www.openstreetmap.org/node/7209088266
7223080285,Unnamed,hostel,13.7162182,100.5884346,Bangkok,Thailand,สุขุมวิท 42/1,+66931404624,,,wlan,,,,https://www.openstreetmap.org/node/7223080285
7260112897,Laundry,laundry,13.7628803,100.4984419,Bangkok,Thailand,,,,,,,,,https://www.openstreetmap.org/node/7260112897
7307707845,Sabye Club Hostel,hostel,13.7624417,100.5022003,Bangkok,Thailand,,,,,,,,,https://www.openstreetmap.org/node/7307707845
7325758685,Meet Young Hostel,hostel,13.7223654,100.5360717,Bangkok,Thailand,,,,Mo-Su 07:00-22:00,wlan,,,,https://www.openstreetmap.org/node/7325758685
7331892285,Unnamed,laundry,13.7193693,100.5168201,Bangkok,Thailand,,,,,,,,,https://www.openstreetmap.org/node/7331892285
7412967748,Flow Coffee Roasters,wifi_cafe,13.7817512,100.5833793,Bangkok,Thailand,Pracha Rat Bamphen 13,,,Mo-Su 09:00-17:00,wlan,,,,https://www.openstreetmap.org/node/7412967748
7416904740,Unnamed,laundry,13.7816974,100.5833671,Bangkok,Thailand,,,,,,,,,https://www.openstreetmap.org/node/7416904740
7416904741,Unnamed,laundry,13.7816275,100.5832785,Bangkok,Thailand,,,,,,,,,https://www.openstreetmap.org/node/7416904741
7427740786,Unnamed,laundry,13.8002659,100.3143165,Bangkok,Thailand,,,,,,,,,https://www.openstreetmap.org/node/7427740786
7449298946,สุวัธชัย การ์เด้น,hostel,13.6047941,100.5973918,Bangkok,Thailand,ถนนสุขุมวิท ซอย 27/1,,,,wlan,,,,https://www.openstreetmap.org/node/7449298946
7455588263,ชลธีคอฟฟี่,wifi_cafe,13.7949618,100.7102784,Bangkok,Thailand,ถนนรามคำแหง 164,,,Mo-Su 08:00-21:00,wlan,,,,https://www.openstreetmap.org/node/7455588263
7462653525,Lida Hostel,hostel,13.7630518,100.5029914,Bangkok,Thailand,,,,,,,,,https://www.openstreetmap.org/node/7462653525
7640661243,Mso Ciety Fitness,gym,13.914616,100.5402566,Bangkok,Thailand,,,,,,,,,https://www.openstreetmap.org/node/7640661243
7779638175,BB Kafe & Dog Fitness,wifi_cafe,13.8255162,100.5975437,Bangkok,Thailand,โชคชัย 4 ซอย 84 แยก 2-1,,,"Mo-Fr 06:30-22:00; Sa,Su 07:30-22:00",yes,,,,https://www.openstreetmap.org/node/7779638175
7996298931,Unico Hostel,hostel,13.6906697,100.6154139,Bangkok,Thailand,,,,,,,,,https://www.openstreetmap.org/node/7996298931
8067698607,Jetts Fitness,gym,13.9121,100.5525989,Bangkok,Thailand,,,,,,,,Jetts,https://www.openstreetmap.org/node/8067698607
8082427786,Art Café Sourire @ Rattanakosin Island,wifi_cafe,13.7570875,100.5033054,Bangkok,Thailand,ซอยดำเนินกลางเหนือ,+66924694466,http://www.sourirebangkok.com/contact.htm,Mo-Su 06:30-15:30,wlan,,,,https://www.openstreetmap.org/node/8082427786
8090122737,คาเฟ่ อเมซอน,wifi_cafe,13.7374287,100.6265454,Bangkok,Thailand,,,,06:00-20:00,wlan,no,,คาเฟ่ อเมซอน,https://www.openstreetmap.org/node/8090122737
8144925035,หอมฉุย Hormchui Cafe,wifi_cafe,13.7749193,100.6486703,Bangkok,Thailand,ถนนนวมินทร์8,+66896971301,,Mo-Su 07:00-23:00,wlan,,,,https://www.openstreetmap.org/node/8144925035
8355290841,sisterhood.cafe,wifi_cafe,13.8268083,100.3751502,Bangkok,Thailand,ซอย สันติธรรม 2,+66 95 895 4367,,"Sa,Su 09:00-18:00",yes,,,,https://www.openstreetmap.org/node/8355290841
8555962836,65Cafe',wifi_cafe,13.6863192,100.6204433,Bangkok,Thailand,Wachiratham Sathit 23 Sukhumvit101/1,+66619645654,https://www.facebook.com/sixtyfivecafe,Mo-Su 07:30-18:00,yes,,,,https://www.openstreetmap.org/node/8555962836
8568509918,Unnamed,hostel,13.7541224,100.5394109,Bangkok,Thailand,,,,,,,,,https://www.openstreetmap.org/node/8568509918
8568510017,Unnamed,hostel,13.7541389,100.5394723,Bangkok,Thailand,,,,,,,,,https://www.openstreetmap.org/node/8568510017
8579859339,Envi Cafe,wifi_cafe,13.8000577,100.3119916,Bangkok,Thailand,ซอยตั้งสิน,+66839942692,https://www.facebook.com/EnviCafe,Mo-Su 11:00-23:00,yes,,,,https://www.openstreetmap.org/node/8579859339
8642034130,วอช ฮับ ร้านซักผ้าหยอดเหรียญ,laundry,13.8319783,100.4692142,Bangkok,Thailand,,,,,,,,,https://www.openstreetmap.org/node/8642034130
8739798643,ร้านซักผ้า Chop Chop Laundromat,laundry,13.8776259,100.5746409,Bangkok,Thailand,แจ้งวัฒนะ 5,+66866611102,www.facebook.com/chopchoplaundromat,24/7,,,,,https://www.openstreetmap.org/node/8739798643
8852298717,Talatnoi Laundry & Dry Cleaning Service,laundry,13.7356127,100.5126061,Bangkok,Thailand,,,,Mo-Sa 08:00-20:00,,,,,https://www.openstreetmap.org/node/8852298717
8883249617,PAGA Microroastery,wifi_cafe,13.7387414,100.566464,Bangkok,Thailand,Sukhumvit 31,088 016 1686,https://pagacoffee.com/,Mo-Su 08:00-17:00,wlan,,,,https://www.openstreetmap.org/node/8883249617
8926516096,I FIT GYM,gym,13.8800812,100.4962247,Bangkok,Thailand,ถนนเลี่ยงเมืองนนทบุรี,+66626622962,https://www.facebook.com/ifitgymthailand,Mo-Su 07:00-24:00,wlan,,,I FIT GYM,https://www.openstreetmap.org/node/8926516096
8944069557,OWL CHA สวนพฤกษ์ คลองจั่น,wifi_cafe,13.7785744,100.6481111,Bangkok,Thailand,ถนนอาคารสงเคราะห์,+66 91 826 6235,https://www.facebook.com/owlcha.klongchan,Mo-Su 08:00-19:00,wlan,,,,https://www.openstreetmap.org/node/8944069557
8945483894,Beluga Coff & Juice,wifi_cafe,13.7783283,100.6475264,Bangkok,Thailand,นวมินทร์ 14,+66 97 248 2126,,Mo-Su 07:00-18:00,wlan,,,,https://www.openstreetmap.org/node/8945483894
8950826311,"BAR BURRER "" Slow bar """,wifi_cafe,13.8229446,100.5835161,Bangkok,Thailand,ซอยรัชดาภิเษก 36 แยก 9-3-4,+66832260024,https://bar-burrer-slow-bar.business.site/?m=true&fbclid=IwAR29IKrPMLvu9d3vW3TL9IlljMtvQlHzU7Vdy-P4SF_TDELmlcJlDCBVN1M,Mo-Su 09:00-21:00,yes,,,,https://www.openstreetmap.org/node/8950826311
8968915970,La Pluie Cafe,wifi_cafe,13.8694782,100.5560104,Bangkok,Thailand,งามวงศ์วาน 47 แยก 40,0917261236,https://www.facebook.com/lapluieCafe,Mo-Su 07:00-19:00,yes,,,,https://www.openstreetmap.org/node/8968915970
9116353206,สำนักหอสมุดกลาง,library,13.8197373,100.5142215,Bangkok,Thailand,,,,,,,,,https://www.openstreetmap.org/node/9116353206
9116395098,Unnamed,laundry,13.857375,100.6811073,Bangkok,Thailand,,,,,,,,,https://www.openstreetmap.org/node/9116395098
9120405809,Atlas Specialty Coffee,wifi_cafe,13.716814,100.655455,Bangkok,Thailand,อ่่อนนุช55-2,0985583945,https://www.facebook.com/Atlas.specialtycoffeeth,Mo-Su 08:00-18:00,yes,,,,https://www.openstreetmap.org/node/9120405809
9141630555,Glenonchy,wifi_cafe,13.9473948,100.441659,Bangkok,Thailand,345,+66 81 6659423,www.facebook.com/glenonchy,,wlan,,,,https://www.openstreetmap.org/node/9141630555
9323486740,Taugom Donmueang,wifi_cafe,13.9200342,100.5678252,Bangkok,Thailand,ถนนวัดเวฬุวนาราม,+66990099969,www.facebook.com/TuaGomBubbleMilkTea,Mo-Su 09:00-21:00,yes,,,,https://www.openstreetmap.org/node/9323486740
9323526419,Starbucks,wifi_cafe,13.7300872,100.5131367,Bangkok,Thailand,,,,,wlan,,,Starbucks,https://www.openstreetmap.org/node/9323526419
9329112618,ฮงเซียงกง,wifi_cafe,13.7347427,100.5115917,Bangkok,Thailand,,,,Tu-Su 10:00-18:00,wlan,,,,https://www.openstreetmap.org/node/9329112618
9369395112,99/556,wifi_cafe,13.6194621,100.6957614,Bangkok,Thailand,บางพลี-ลาดกระบัง,+66819030369,https://www.facebook.com/WinWinAccounting/,24/7,yes,,,,https://www.openstreetmap.org/node/9369395112
9383217217,Unnamed,hostel,13.7211584,100.4894117,Bangkok,Thailand,,,,,wlan,,,,https://www.openstreetmap.org/node/9383217217
9394269217,-273° Coffee,wifi_cafe,13.7254029,100.5312484,Bangkok,Thailand,ซอยสีลม 3,+66 83-917-5642,,Mo-Sa 09:00-19:00,wlan,,,,https://www.openstreetmap.org/node/9394269217
9394462017,Beautiful Souls,hostel,13.7211238,100.4894466,Bangkok,Thailand,,,,,wlan,,,,https://www.openstreetmap.org/node/9394462017
9427192517,Unnamed,wifi_cafe,13.7264836,100.5764705,Bangkok,Thailand,Sukhumvit Soi 51,02 258 5860,https://www.naturescharmcafe.com/,Mo-Su 09:00-20:00,wlan,,,,https://www.openstreetmap.org/node/9427192517
9446215117,Unnamed,gym,13.7861814,100.4694473,Bangkok,Thailand,ถนนบรมราชชนนี,+66 2 434 3999,,"Mo-Tu, Th-Fr 09:00-22:00; We, Sa-Su 09:00-20:00",,,,,https://www.openstreetmap.org/node/9446215117
9465504417,ร่ำรวย,wifi_cafe,13.7541641,100.4862302,Bangkok,Thailand,ถนนอรุณอมรินทร์,,,,wlan,,,,https://www.openstreetmap.org/node/9465504417
9546771939,Unnamed,gym,13.834527,100.4895311,Bangkok,Thailand,,,,Mo-Su 09:00-21:00,,,,,https://www.openstreetmap.org/node/9546771939
9555549317,Unnamed,hostel,13.7636418,100.5010048,Bangkok,Thailand,สานเสน 6,,https://www.samsenstreethotel.com/,,wlan,,,,https://www.openstreetmap.org/node/9555549317
9604506117,The Coffee Club,wifi_cafe,13.7342031,100.5287461,Bangkok,Thailand,,,,,wlan,yes,,,https://www.openstreetmap.org/node/9604506117
9666052417,อีฟฟุ,laundry,13.7320143,100.526619,Bangkok,Thailand,,,,24/7,,,,,https://www.openstreetmap.org/node/9666052417
9703135017,Unnamed,hostel,13.7214225,100.765002,Bangkok,Thailand,,,,,,,,,https://www.openstreetmap.org/node/9703135017
9729668018,Jetts,gym,13.7416664,100.5114075,Bangkok,Thailand,,,,,,,,,https://www.openstreetmap.org/node/9729668018
9739291651,Silom Space Hostel,hostel,13.7292496,100.5354293,Bangkok,Thailand,,,https://www.facebook.com/SilomSpacehostel/,,yes,,,,https://www.openstreetmap.org/node/9739291651
9739291656,Ekanek Hostel,hostel,13.7297269,100.5321179,Bangkok,Thailand,,,https://ekanekhostel.business.site/,,yes,,,,https://www.openstreetmap.org/node/9739291656
9742503317,เดอะคิทท์ พลัส นวมินทร์,hostel,13.8350828,100.6570902,Bangkok,Thailand,ซอยนวมินทร์ 163,,,,,,,,https://www.openstreetmap.org/node/9742503317
9869908692,U Laundry,laundry,13.7275849,100.7645679,Bangkok,Thailand,,,,24/7,,no,,,https://www.openstreetmap.org/node/9869908692
9869998112,Tiger Wash & Dry,laundry,13.7266489,100.7646087,Bangkok,Thailand,,+66 61 149 9955,,24/7,,no,,,https://www.openstreetmap.org/node/9869998112
9897718517,Unnamed,hostel,13.7391301,100.5620907,Bangkok,Thailand,,,,,,,,,https://www.openstreetmap.org/node/9897718517
9913671425,Kikuya,laundry,13.7251731,100.5777181,Bangkok,Thailand,,,,,,,,,https://www.openstreetmap.org/node/9913671425
9913745747,Dry Clinique,laundry,13.7376036,100.5680721,Bangkok,Thailand,,,,,,,,,https://www.openstreetmap.org/node/9913745747
9918166623,Unnamed,laundry,13.9194252,100.6918326,Bangkok,Thailand,,,,,,,,,https://www.openstreetmap.org/node/9918166623
9918315437,The Little Gym,gym,13.7261207,100.5801528,Bangkok,Thailand,,,,,,,,,https://www.openstreetmap.org/node/9918315437
9936956749,ร้านซักรีด,laundry,13.7263543,100.7642646,Bangkok,Thailand,,+66 92 251 9318,,,,,,,https://www.openstreetmap.org/node/9936956749
9936956753,พี่นิด U Place,laundry,13.7250406,100.7643532,Bangkok,Thailand,,+66 87 334 1323;+66 83 293 7335,,06:00-20:00,,no,,,https://www.openstreetmap.org/node/9936956753
9936956758,Wash Cabin,laundry,13.726851,100.7643428,Bangkok,Thailand,,,,24/7,,no,,,https://www.openstreetmap.org/node/9936956758
9951920417,Yellow Lane,wifi_cafe,13.7752064,100.5399393,Bangkok,Thailand,,,,,wlan,no,,,https://www.openstreetmap.org/node/9951920417
9960601917,Everyday Bangkok Hostel,hostel,13.731885,100.5269587,Bangkok,Thailand,ถนนทรัพย์,+6626370009,https://www.everydaybangkokhostel.com/,,wlan,,,,https://www.openstreetmap.org/node/9960601917
10012590169,Danny's Gym,gym,13.6917889,100.6398886,Bangkok,Thailand,Soi Suphaphong 1,063-226-9273,https://www.facebook.com/dannysgymbkk,"Mo-Fr 06:00-24:00; Sa,Su 10:00-22:00",,yes,,,https://www.openstreetmap.org/node/10012590169
10020446492,Fred,wifi_cafe,13.7258484,100.5798855,Bangkok,Thailand,,,,,wlan,,,,https://www.openstreetmap.org/node/10020446492
10074295417,Thai Legal Consulting,wifi_cafe,13.7273219,100.5279157,Bangkok,Thailand,ถนนนราธิวาสราชนครินทร์,+6622344740,,Monday - Saturday 8:30-18:30,yes,,,,https://www.openstreetmap.org/node/10074295417
10078070692,ซักดี,laundry,13.7332248,100.5266098,Bangkok,Thailand,,+66 845558299,https://www.facebook.com/SAKD0845558299/,,,,,,https://www.openstreetmap.org/node/10078070692
10101947821,Unnamed,hostel,13.924763,100.5830442,Bangkok,Thailand,,,,,,,,,https://www.openstreetmap.org/node/10101947821
10104723653,Cafe Velodome,wifi_cafe,13.7583795,100.5043343,Bangkok,Thailand,,,,07:00-16:00,wlan,limited,,,https://www.openstreetmap.org/node/10104723653
10110576662,The Yard,hostel,13.7766962,100.5417262,Bangkok,Thailand,Phahon Yothin 5,,,,,,,,https://www.openstreetmap.org/node/10110576662
10141813117,Unnamed,hostel,13.7628475,100.501073,Bangkok,Thailand,,,,,,,,,https://www.openstreetmap.org/node/10141813117
10170951721,Unnamed,laundry,13.8902844,100.5193741,Bangkok,Thailand,,,,,,,,,https://www.openstreetmap.org/node/10170951721
10172949317,Unnamed,hostel,13.7604347,100.5023728,Bangkok,Thailand,,,,,,,,,https://www.openstreetmap.org/node/10172949317
10208593117,Unnamed,hostel,13.760879,100.5017653,Bangkok,Thailand,,,https://bangkokcanalehomeatkhaosarn.thailandhotels.site/,,wlan,,,,https://www.openstreetmap.org/node/10208593117
10219698572,ร้านสถานีโบราณ,wifi_cafe,13.8661313,100.6687608,Bangkok,Thailand,ซอยคู้บอน 27,0852112799,https://www.facebook.com/profile.php?id=100087758155115&mibextid=ZbWKwL,Mo-Sa 10:00-20:00,wlan,,,,https://www.openstreetmap.org/node/10219698572
10230322017,Shanti Lodge,hostel,13.771965,100.5036106,Bangkok,Thailand,,,,,,,,,https://www.openstreetmap.org/node/10230322017
10245741623,Unnamed,hostel,13.7633322,100.5023836,Bangkok,Thailand,ซอยวรผงษ์,,,,wlan,,,,https://www.openstreetmap.org/node/10245741623
10245741624,Unnamed,hostel,13.7523971,100.5361342,Bangkok,Thailand,ถนนเพชรบุรี,,,,wlan,,,,https://www.openstreetmap.org/node/10245741624
10245741625,Unnamed,hostel,13.6990718,100.6049035,Bangkok,Thailand,ซอยสุขุมวิท 93,,,,wlan,,,,https://www.openstreetmap.org/node/10245741625
10245741710,Unnamed,hostel,13.760451,100.5016991,Bangkok,Thailand,ถนนพระสุเมรุ,,,,wlan,,,,https://www.openstreetmap.org/node/10245741710
10245742209,Unnamed,hostel,13.7202549,100.4959011,Bangkok,Thailand,,,,,wlan,,,,https://www.openstreetmap.org/node/10245742209
10249201010,Unnamed,laundry,13.7233276,100.4954608,Bangkok,Thailand,,,,24/7,wlan,,,,https://www.openstreetmap.org/node/10249201010
10258384083,Thanika Laundry,laundry,13.6727817,100.543293,Bangkok,Thailand,,,,,,,,,https://www.openstreetmap.org/node/10258384083
10258426045,Unnamed,wifi_cafe,13.7570537,100.5336205,Bangkok,Thailand,,,,,wlan,,,,https://www.openstreetmap.org/node/10258426045
10280863490,Unnamed,hostel,13.9262577,100.6008889,Bangkok,Thailand,สรณคมน์ 10,+66 95 287 8965,,,yes,limited,,,https://www.openstreetmap.org/node/10280863490
10289206346,Raku-Tea 楽茶,wifi_cafe,13.7605819,100.4965446,Bangkok,Thailand,chakrabongse Rd,,https://www.facebook.com/profile.php?id=100088703807863&mibextid=ZbWKwL,Mo-Su 10:00-22:00,wlan,,,,https://www.openstreetmap.org/node/10289206346
10291367404,Chetawan,gym,13.8202989,100.6695157,Bangkok,Thailand,,,,,,,,,https://www.openstreetmap.org/node/10291367404
10294396481,Rinn Muaythai,gym,13.8168025,100.6533067,Bangkok,Thailand,,,,,,,,,https://www.openstreetmap.org/node/10294396481
10300359847,500 Cafe,wifi_cafe,13.7787308,100.479012,Bangkok,Thailand,ซอยแซมมี่,+66948810500,https://www.forfun.store/500cafe,Fr-Sa 13:00-00:00,wlan,no,,500 Cafe & Bar,https://www.openstreetmap.org/node/10300359847
10308479925,Wash House,laundry,13.6808784,100.5306824,Bangkok,Thailand,,,,24/7,,,,,https://www.openstreetmap.org/node/10308479925
10536274409,สตาร์บัคส์,wifi_cafe,13.7336413,100.5282986,Bangkok,Thailand,Phaya Thai Road,,,24/7,yes,,,Starbucks,https://www.openstreetmap.org/node/10536274409
10542441065,Mor Mor Cafe,wifi_cafe,13.7335039,100.6473064,Bangkok,Thailand,,,https://th-th.facebook.com/mormormilkcafe/,Mo-Su 10:30-18:30,wlan,,,,https://www.openstreetmap.org/node/10542441065
10547778534,Hookrajong,wifi_cafe,13.6798586,100.5439502,Bangkok,Thailand,,,,Mo-Su 09:00-18:00,wlan,yes,Hookrajong,,https://www.openstreetmap.org/node/10547778534
10575864894,CU Hangout Space,coworking,13.7420256,100.5272742,Bangkok,Thailand,,,,Mo-Su 09:00-22:00,yes,,,,https://www.openstreetmap.org/node/10575864894
10575973941,Khao San Social Capsule,hostel,13.7601898,100.4986884,Bangkok,Thailand,,,,,,,,,https://www.openstreetmap.org/node/10575973941
10577997533,อ๊อตเทริ วอช แอนด์ ดราย,laundry,13.8432467,100.4826607,Bangkok,Thailand,,,https://www.otteriwashdry.com/,,,,,,https://www.openstreetmap.org/node/10577997533
10590146009,Bumble Bee Free Library,library,13.8876469,100.5242725,Bangkok,Thailand,,,,,,,,,https://www.openstreetmap.org/node/10590146009
10650433505,Bānsū,hostel,13.7503324,100.5282077,Bangkok,Thailand,,+66 (63) 646-6242,,,wlan,,,,https://www.openstreetmap.org/node/10650433505
10656523049,สิน ไฉ ฮั้ว,laundry,13.7254935,100.6587037,Bangkok,Thailand,,,,24/7,,,,,https://www.openstreetmap.org/node/10656523049
10660696060,WOW LAUNDRY,laundry,13.7371956,100.435266,Bangkok,Thailand,,,,,,,,,https://www.openstreetmap.org/node/10660696060
10672744225,Bearoffee,wifi_cafe,13.751925,100.5359985,Bangkok,Thailand,,,,,wlan,,,,https://www.openstreetmap.org/node/10672744225
10684441834,Atha Lifestyle,gym,13.7244175,100.5773354,Bangkok,Thailand,,,,,,,,,https://www.openstreetmap.org/node/10684441834
10684489197,สตาร์บัคส์,wifi_cafe,13.7302821,100.5683994,Bangkok,Thailand,,,www.starbuckscard.in.th,,wlan,,,Starbucks,https://www.openstreetmap.org/node/10684489197
